stop_id,stop_name,stop_lat,stop_lon,wheelchair_boarding
0,Lotnisko Modlin,52.445559,20.651567,
36939,Ciechanów,52.88339915431,20.59131914352,
49809,Dęblin,51.57813499126,21.83432672884,
48827,Drzewica,51.43699538572,20.46566942328,
5900,Gdynia Główna,54.52128410189,18.52806359468,
21808,Iława Główna,53.58231351954,19.57368118092,
32201,Kutno,52.22701929483,19.34870615211,
39909,Łuków,51.9410027565,22.39151672618,
38307,Małkinia,52.69415895659,22.03357172883,
36707,Nasielsk,52.57283001138,20.76804374603,
23309,Ostrołęka,53.05607334229,21.61671868584,
38885,Otwock,52.10961288372,21.26300835582,1
39206,Pilawa,51.95562237451,21.53356362698,
48736,Pionki Zachodnie,51.47189826741,21.44120349934,
32607,Płock,52.55274238269,19.71269974603,
48801,Przysucha,51.37805592715,20.6587555324,
48355,Radom Główny,51.39107956687,21.1559020539,
32706,Sierpc,52.84789825922,19.65378252646,
48009,Skarżysko Kamienna,51.11591040278,20.88136602447,
47001,Skierniewice,51.96730420328,20.15043398413,
5942,Sopot,54.43995694985,18.56235946849,
10603,Szczytno,53.56020424599,20.99707764687,
37507,Tłuszcz,52.4311589486,21.43562146165,
4952,Ustka,54.57873708694,16.86106249282,
6304,Wejherowo,54.60582937299,18.22962210729,
33605,Warszawa Centralna,52.22884143194,21.0032749828,1
36103,Warszawa Gdańska,52.25911858243,20.99311973016,1
32417,Płock Radziwie,52.5242193615,19.67225016071,
22442,Działdowo,53.23894199774,20.1672217791,
37440,Warszawa Wileńska,52.25569643758,21.03832098148,1
33506,Warszawa Zachodnia,52.21995562238,20.96576919014,2
34868,Warszawa Zachodnia (Peron 9),52.22223604539,20.96142072884,1
251565,Warszawa Zacisze - Wilno,52.27795623182,21.08023411045,1
37226,Mława,53.12646126612,20.35064938756,
25205,Czeremcha,52.51867068876,23.35354454233,
37762,Wyszków,52.60195039211,21.44662364418,
36228,Zielonka,52.31171045037,21.15742133862,1
36509,Legionowo,52.40140810951,20.94165234261,1
33902,Piaseczno,52.06656150582,21.01725960979,1
34108,Pruszków,52.16825322977,20.79886836309,1
34603,Sochaczew,52.21517565534,20.23901892527,
36772,Arcelin,52.65979204524,20.31837039385,
38984,Augustówka,51.98700467401,21.51386435715,
32326,Kutno Azory,52.2400209672,19.30402505886,
36780,Baboszewo,52.68318383552,20.26032997819,
37929,Barchów,52.51765311472,21.64751419511,
39081,Barcząca,52.15682153062,21.62631827116,
39461,Białki Siedleckie,52.12860906833,22.30943645767,
34363,Błonie,52.18653866675,20.60834904299,
39487,Borki Kosy,52.08898435195,22.358397,
25320,Borowiki,52.48207606321,23.21520624537,
36483,Brody Warszawskie,52.5138846715,20.74809466138,
34132,Brwinów,52.14171320914,20.7182313201,
38943,Celestynów,52.05791247682,21.39363541006,
178633,Chotomów,52.4156838428,20.88478693254,1
38968,Chrosna,52.0316362148,21.44831860979,
38125,Chrzęsne,52.44715012197,21.47472502579,
36749,Cieksyn,52.57749132199,20.66418372618,
39727,Cierpigórz,52.22605726444,22.59473850661,
39149,Cisie,52.21001084138,21.39035614352,
40436,Czachówek Górny,51.96789606624,21.07763617791,
40444,Czachówek Południowy,51.95828068108,21.08155178043,
40360,Czachówek Wschodni,51.97350599689,21.10445042023,
36756,Dalanówek,52.59443655148,20.46385520636,
23713,Dalekie,52.68248581795,21.49440306746,
36640,Dąbkowizna,52.423811,21.08566847487,1
39123,Dębe Wielkie,52.19917981693,21.4228349828,
36384,Dobczyn,52.37884350575,21.31305718881,
39495,Dziewule,52.0552074299,22.38617019511,
39784,Fronołów,52.36085682793,22.92909917791,
39263,Garwolin,51.90101942603,21.5541062209,
23655,Gierwaty,52.9925236435,21.60403431779,
32359,Gostynin,52.43336054116,19.4761607877,
23663,Goworowo,52.92109104572,21.58202165277,
32847,Gozdowo,52.7294397652,19.69569988095,
40345,Góra Kalwaria,51.98927746226,21.19313725529,
34165,Grodzisk Mazowiecki,52.11021993141,20.62252647354,
39867,Grodziszcze Mazowieckie,52.16082621327,21.87231232275,
37788,Grzegorzewo,52.48556387098,21.42862843188,
39131,Halinów,52.22343028926,21.35011789815,
34322,Jaktorów,52.08676410864,20.55203651191,
36541,Janówek,52.42530122016,20.77844407606,1
36426,Jasienica Mazowiecka,52.41540055703,21.39849016071,
32961,Jasionna Łowicka,52.12461364118,20.12365507606,
38851,Józefów,52.13602102297,21.23671289815,1
36798,Kaczorowo,52.72691375615,20.17345192394,
38323,Kietlanka,52.74397487284,22.17875457539,
36335,Kobyłka,52.33686322295,21.21546406746,1
38950,Kołbiel,52.04022742893,21.43447900266,
39479,Kosiorki,52.10710676855,22.33601208466,
39834,Koszewnica,52.16909990404,21.98689004663,
37622,Krusze,52.42716218683,21.35799111772,
39925,Krynka Łukowska,52.00671762606,22.37578931779,
39453,Krzymosze,52.17795326288,22.43917473743,
36525,Legionowo Piaski,52.41268698697,20.94283974603,1
36517,Legionowo Przystanek,52.41124919955,20.91432283069,1
39313,Leokadia,51.76687905341,21.63310049207,
23721,Leszczydół,52.64587921163,21.46926464418,
37820,Lucynów,52.55328122535,21.45934647487,
39297,Łaskarzew Przystanek,51.7979990755,21.60853327116,
32383,Łąck,52.48703747043,19.59615905026,
37911,Łochów,52.53397373547,21.68755579762,
38844,Michalin,52.14833316799,21.22446162698,1
36574,Michałów-Reginów,52.42251866489,20.96262843188,1
39073,Mienia,52.14933583346,21.68712272884,
32821,Mieszaki,52.83675616524,19.74517082209,
39347,Mika,51.67269001972,21.74848726257,
34140,Milanówek,52.12484226231,20.66716466005,
36467,Modlin,52.44367451743,20.70438260482,1
37994,Mokra Wieś,52.457494,21.50001791534,
39693,Mordy,52.19581050689,22.49657249074,
39719,Mordy Miasto,52.20342623152,22.52156014484,
37796,Mostówka,52.51886027542,21.44195188095,
39875,Mrozy,52.16419810829,21.80148861111,
33068,Mysłaków,52.09239292287,20.01630259657,
39743,Niemojki,52.25866465828,22.70130330423,
36624,Nieporęt,52.43067437521,21.03221116204,1
33910,Nowa Iwiczna,52.09134289942,20.99532493121,1
36459,Nowy Dwór Mazowiecki,52.42529479678,20.72381501454,1
25346,Nowy Nurzec,52.47256037859,23.17662271891,
25353,Nurzec,52.46006477662,23.08304835449,
36327,Kobyłka-Ossów,52.32725015223,21.19327126257,1
34348,Ożarów Mazowiecki,52.20740985064,20.79627733862,2
23671,Pasieki,52.85402350326,21.56048106746,
39750,Patków,52.27087460635,22.74549011639,
39768,Platerów,52.30105256082,22.82068389815,
32623,Płock Trzepowo,52.58890905413,19.73371831283,
36764,Płońsk,52.61603973898,20.3660787619,
38927,Pogorzel Warszawska,52.09469154811,21.34057425397,
36475,Pomiechówek,52.47336511222,20.7434919828,
23689,Prabuty Góry,52.80640571438,21.56985827116,
32870,Proboszczewice Płockie,52.66034801731,19.71377777777,
38372,Prostyń,52.659234,21.961007,
36814,Raciąż,52.77895585818,20.10491857805,
32334,Raciborów Kutnowski,52.28048275836,19.34161654233,
39529,Radomyśl,52.03111220148,22.38099972884,
38174,Radzymin,52.42428373273,21.17749396445,1
32367,Rogożew,52.46174972358,19.5412909828,
39370,Ruda Talubska,51.85285748836,21.58979996728,
38158,Sadowne Węgrowskie,52.60766921993,21.86305508598,
39776,Sarnaki,52.32522762664,22.87979228703,
34439,Seroki,52.19645217796,20.46781182209,
25387,Siemiatycze,52.39102692267,22.9450162209,
47035,Skierniewice Rawka,51.97758535489,20.2212768525,
39321,Sobolew,51.74134575258,21.673084459,
39842,Sosnowe,52.17588073804,21.940556,
38935,Stara Wieś,52.08425751778,21.35878654233,
39438,Stok Lacki,52.16213488444,22.38828666005,
38711,Sulejówek,52.247739051,21.27710226505,1
38729,Sulejówek Miłosna,52.24048288352,21.29895841601,1
32862,Susk,52.78510142233,19.6831260086,
25361,Sycze,52.42921479271,22.99842081349,
37945,Szewnica,52.48336926362,21.563417,
24745,Szulborze Wielkie,52.76011977572,22.22602298742,
34447,Teresin-Niepokalanów,52.20210492946,20.41658183929,
38919,Otwock Śródborów,52.10122249429,21.29439559853,1
38869,Otwock Świder,52.12112611213,21.25151981349,1
38141,Topór,52.58448614405,21.81174142328,
37937,Urle,52.50737696309,21.622328,
33936,Ustanówek,51.99678566986,21.0600625582,
38760,Warszawa Anin,52.21303183538,21.15989691534,1
36160,Warszawa Choszczówka,52.35785951492,20.97227694114,1
33845,Warszawa Dawidy,52.12854932542,20.99116172884,1
38836,Warszawa Falenica,52.16182633676,21.21100794974,1
33472,Warszawa Główna,52.22514314412,20.98546389815,1
33449,Warszawa Gołąbki,52.20844831988,20.86436281482,2
258646,Warszawa Mokry Ług,52.2772554876,21.17047981349,1
261233,Warszawa Koło,52.24619343106,20.95901317791,1
33878,Warszawa Jeziorki,52.11030334732,20.99319855704,1
34835,Warszawa Młynów,52.23895144989,20.95845,1
38810,Warszawa Miedzeszyn,52.17267295793,21.20020344907,1
38778,Warszawa Międzylesie,52.20394445698,21.16895566138,1
33498,Warszawa Ochota,52.22580542435,20.99078633862,2
264520,Warszawa Powązki,52.25593086312,20.97169433995,1
33803,Warszawa Okęcie,52.16596885644,20.98736381349,1
38745,Warszawa Olszynka Grochowska,52.24982598942,21.10670472884,1
36152,Warszawa Płudy,52.33402917298,20.98591253373,1
36129,Warszawa Praga,52.276981488,21.02265696693,2
38786,Warszawa Radość,52.18574024783,21.18714211409,1
33555,Warszawa Rakowiec,52.19681659314,20.96603470304,1
33456,Warszawa Aleje Jerozolimskie,52.20544234934,20.94152443321,1
240720,Warszawa Żwirki i Wigury,52.19340974892,20.98037906746,1
38661,Warszawa Rembertów,52.2571282693,21.15821974471,1
241994,Warszawa Lotnisko Chopina,52.16962861123,20.97518083069,1
33571,Warszawa Śródmieście,52.22938671429,21.00759854233,1
36137,Warszawa Toruńska,52.294097465,21.01308769444,1
33548,Warszawa Ursus Północny,52.20569204427,20.88977133499,1
38737,Warszawa Wawer,52.22338255687,21.14955292394,2
251603,Warszawa Ursus Niedźwiadek,52.1913526495,20.86947281217,1
36111,Warszawa ZOO,52.26357245135,21.01800065278,1
36145,Warszawa Żerań,52.31413273668,20.99893625397,2
38679,Warszawa Wesoła,52.25408728389,21.22408961227,1
36582,Wieliszew,52.42826658052,20.97487970304,1
34371,Witanów,52.18594271107,20.57413988955,
36731,Wkra,52.58488737645,20.57068059853,
38687,Warszawa Wola Grzybowska,52.25282706189,21.25086482209,1
39271,Wola Rowska,51.82130194434,21.60118318651,
36350,Wołomin Słoneczna,52.3543423823,21.25593711045,1
39156,Wrzosów,52.18439491026,21.48263458895,
39339,Wygoda,51.68878717439,21.73097733862,
38976,Zabieżki,52.01245522448,21.4718879914,
36368,Zagościniec,52.36484089728,21.28048235582,1
33928,Zalesie Górne,52.02664042676,21.04168389815,1
38356,Zaręby Kościelne,52.73097000613,22.14081725397,
32839,Zawidz Kościelny,52.82413839021,19.87778459126,
32805,Zawidz,52.82950564505,19.84339880357,
37457,Ząbki,52.29244466016,21.1133249828,1
23739,Zygmuntowo Mazowieckie,52.72745056379,21.52551669444,
39354,Życzyn,51.64773426344,21.76039519378,
39800,Mińsk Mazowiecki Anielina,52.16779167783,21.58554522454,
179081,Nowe Dębe Wielkie,52.19339671162,21.44009152513,
177923,Siedlce Wschodnie,52.14431438014,22.29785462698,
48769,Antoniówka,51.42466541835,21.27849884904,
48421,Bartodzieje,51.52527046727,21.17807355093,
50203,Bąkowiec,51.51730045124,21.72350870898,
48850,Bieliny Opoczyńskie,51.42399089995,20.50209009689,
49056,Chronów,51.35810585167,20.93040477183,
48595,Chynów,51.90275271757,21.10068733862,
50286,Garbatka Letnisko,51.49478541802,21.62993686375,
49155,Gąsawy Plebańskie,51.23195205302,20.94724344048,
48645,Gośniewice,51.81633866923,21.13979760517,
48546,Grabów nad Pilicą,51.74209128669,21.1821165129,
49106,Jastrząb,51.24884163472,20.98456318385,
48744,Jedlnia Kościelna,51.45543381524,21.40840172157,
48751,Jedlnia Letnisko,51.42967177899,21.32776322552,
48470,Kończyce Radomskie,51.3490519905,21.0455692209,
48629,Krężel,51.87150391627,21.11143213625,
48587,Kruszyna,51.57986376928,21.17896529084,
48439,Lesiów,51.47973966144,21.19370587962,
48124,Lipowe Pole,51.15507722674,20.90104708466,
48637,Michalczew,51.84388534376,21.12086769577,
48702,Pionki,51.47985027274,21.46270458665,
49064,Podbór,51.36044760142,20.8755960172,
48777,Rajec Poduchowny,51.41516018465,21.25362638161,
49841,Rokitnia Stara,51.61199971011,21.79831550528,
49163,Rożki,51.33928768147,21.0547064762,
49130,Ruda Wielka,51.30244378552,21.04409481349,
49072,Skrzynno,51.36522689015,20.72139808333,
48835,Smogorzów Przysuski,51.39494181835,20.60514311045,
48561,Strzyżyna,51.69356208905,21.17268030919,
48611,Sułkowice,51.92586555806,21.09267034722,
48082,Szydłowiec,51.20800654822,20.92344117791,
48504,Warka,51.79312701868,21.16958188228,
49049,Wieniawa,51.36347859079,20.78974915939,
48447,Wola Bierwiecka,51.54317667435,21.17728588095,
49148,Wola Lipieniecka,51.27690753807,21.02637554233,
48454,Wolanów,51.35331265666,21.00001151653,
49916,Zajezierze koło Dęblina,51.54214824003,21.81728732275,
48843,Zygmuntów,51.40862597204,20.57215824935,
48785,Żytkowice,51.48305076941,21.55701980622,
36913,Ciechanów Przemysłowy,52.86471481594,20.61534234722,
36947,Czeruchy,52.93618698985,20.50594197421,
36871,Gąsocin,52.73864749009,20.72033869179,
7583,Gdańsk Oliwa,54.40984425779,18.5718739534,
7534,Gdańsk Wrzeszcz,54.381951326,18.60508491696,
36889,Gołotczyzna,52.78447746879,20.68189153373,
22400,Iłowo,53.16565276898,20.29372732275,
36855,Jackowo Dworskie,52.6311592323,20.77500776687,
36848,Kątne,52.60665542278,20.76224554233,
36970,Konopki,52.99653585036,20.45983740741,
37218,Mława Miasto,53.10853971369,20.36422754233,
22434,Narzym,53.18996957,20.25356215211,
262771,Parzniew,52.15660840423,20.7634370172,
10637,Siódmak,53.52452290193,20.97143962765,
36988,Stupsk Mazowiecki,53.02115468581,20.43404297421,
36830,Świercze,52.67043360135,20.7628119914,
37028,Wyszyny,53.06118790955,20.39208725397,
263396,Grabniak,51.7124404877,21.70526916931,
264969,Radom Północny,51.41959192244,21.18646554233,
264970,Radom Gołębiów,51.41182168415,21.18806184292,
48363,Radom Stara Wola,51.43885743411,21.18482433002,
24737,Czyżew,52.79971278558,22.34214662433,
7112,Tczew,54.09745621809,18.78960368872,
36236,Zielonka Bankowa,52.29144304482,21.15404068887,1
32342,Sierakówek,52.37094205994,19.42074892759,
39008,Mińsk Mazowiecki,52.17586935636,21.55245601594,
32979,Kęszyce,52.13823272766,20.14796554506,
34223,Sucha Żyrardowska,52.02289712281,20.35942553938,
34850,Warszawa Wola,52.22986288041,20.95783977628,1
39404,Siedlce,52.16181364664,22.27167427003,
33530,Warszawa Ursus,52.19648425748,20.88534235418,1
32904,Łowicz Główny,52.10521690787,19.95498597086,
7872,Malbork,54.03621384954,19.04257891417,
34355,Płochocin,52.20006655554,20.70204554915,1
34124,Piastów,52.18262583466,20.84266304434,1
33563,Warszawa Służewiec,52.18086526898,20.98701819241,1
5256,Lębork,54.53362086617,17.75043008566,
233222,Siedlce Zachodnie,52.17351388703,22.2355422324,
7500,Gdańsk Główny,54.35643747799,18.64413141132,
38653,Warszawa Wschodnia,52.25143798823,21.05225084066,2
33001,Nowa Sucha,52.1584866138,20.16764758945,
34397,Boża Wola,52.18988116076,20.52694290608,
39792,Kotuń,52.17628385342,22.0678263849,
34249,Radziwiłłów Mazowiecki,52.00029293561,20.29034792304,
23697,Przetycz,52.76895988161,21.55118464887,
36962,Krośnice Mazowieckie,52.96759397421,20.49117028177,
36418,Klembów,52.39593479727,21.35294258058,
33639,Warszawa Powiśle,52.23374227259,21.02809220284,2
48413,Radom Południowy,51.34948524788,21.10112605333,
36343,Wołomin,52.34664299751,21.23811721265,1
38133,Ostrówek Węgrowski,52.55968829502,21.75069808423,
38539,Warszawa Gocławek,52.23872182909,21.13266616524,1
33514,Warszawa Włochy,52.20626871726,20.91497539401,1
48462,Radom Potkanów,51.35299637393,21.10208629489,
39818,Sabinka,52.17317174145,22.17269002855,
265250,Warszawa Grochów,52.25549035164,21.08425497472,1
34330,Międzyborów,52.06360272882,20.48246919036,
32318,Strzelce Kujawskie,52.32286831678,19.36866042852,
37770,Jarzębia Łąka,52.4578693739,21.44772647738,
34231,Jesionka,52.0148222069,20.33472775877,
36863,Kałęczyn,52.70738724687,20.7473802352,
39883,Cegłów,52.14847603036,21.73634290158,
34462,Piasecznica,52.21003266044,20.3442495954,
33647,Warszawa Stadion,52.24479378104,21.0438126272,1
34207,Żyrardów,52.05234533554,20.44856070399,
4705,Słupsk,54.46771196624,17.01648113966,
48520,Dobieszyn,51.63089150185,21.1764103067,
36822,Koziebrody,52.80202198507,19.97262417197,
34629,Kornelin,52.18316196692,20.2062338537,
32953,Bednary,52.10546073288,20.06451665283,
36491,Studzianki Nowe,52.53789470381,20.75146793783,
37838,Rybienko,52.58226802733,21.4582192871,
22905,Prabuty,53.75781755726,19.21039490068,
263452,Warszawa Targówek,52.26431716822,21.05156753345,
265204,Warka Miasto,51.78068461651,21.17769028471,
279429,Dąbrówka Zachodnia,51.30999824462,21.04601598421,
279432,Groszowice Wrzosów,51.42958997042,21.30093383536,
23333,Grabowo,53.07284167846,21.53316019893,
23341,Nowa Wieś Kościelna,53.08472623382,21.41255735278,
23358,Zabiele Wielkie,53.08460380225,21.34836671591,
23366,Jastrząbka,53.1326426275,21.24736052513,
23374,Parciaki,53.17479952878,21.14110861244,
23382,Olszewka,53.21430815735,21.05940038359,
23390,Raszujka,53.24610249644,21.00394457275,
23416,Chorzele,53.27941854423,20.9430678889,
280301,Błonie Rokitno,52.18937177831,20.64123304663,
280495,Józefin,52.22934340872,21.33240315809,
23432,Wielbark,53.4002127907,20.95288037181,
10645,Jesionowiec,53.44669187808,20.9958118093,
10629,Szymany,53.48692840552,20.96654890895,
279430,Kosów,51.34661046341,21.06464266509,
