stop_id,stop_name,stop_lat,stop_lon
46458,Łódź Fabryczna,51.76956162252,19.46956420169
46433,Łódź Niciarniana,51.76682560172,19.5074091136
46409,Łódź Widzew,51.76321082812,19.54318695347
46490,Łódź Andrzejów,51.74107053154,19.61707446226
47258,Koluszki,51.74339815459,19.81837887943
47316,Rogów,51.81805249261,19.88621943834
47357,Lipce Reymontowskie,51.90524366394,19.94324918859
47001,Skierniewice,51.96730420328,20.15043398413
47035,Skierniewice Rawka,51.97758535489,20.2212768525
34207,Żyrardów,52.05234533554,20.44856070399
33506,Warszawa Zachodnia,52.21995562238,20.96576919014
33605,Warszawa Centralna,52.22884143194,21.0032749828
38653,Warszawa Wschodnia,52.25143798823,21.05225084066
34165,Grodzisk Mazowiecki,52.11021993141,20.62252647354
46706,Łódź Kaliska,51.75786647986,19.42983100106
251555,Łódź Pabianicka,51.72641710553,19.4451013029
46565,Łódź Chojny,51.72641334627,19.48432155992
177968,Łódź Olechów Wiadukt,51.72367619399,19.54348161436
220591,Łódź Olechów Zachód,51.72496777711,19.55949202168
177969,Łódź Olechów Wschód,51.72975345469,19.59443912482
177980,Łódź Andrzejów Szosa,51.74155952443,19.61292961818
33472,Warszawa Główna,52.22514314412,20.98546389815
280915,Łódź Zarzew,51.75086864278,19.51313923949
251561,Łódź Dąbrowa,51.73592584622,19.51061381349
264954,Łódź Retkinia,51.74034966243,19.40656944841
46573,Łódź Lublinek,51.72102685901,19.3594095295
280346,Pabianice Północne,51.670219699,19.34224605024
46581,Pabianice,51.66080053969,19.32482150618
46615,Chechło,51.64493645938,19.28645087915
178637,Dobroń,51.62960816031,19.2416131645
178639,Kolumna,51.61481795902,19.19568764724
46649,Łask,51.60372042378,19.11212892399
46656,Borszewice,51.6097399766,19.03568967857
19430,Zduńska Wola,51.61127947075,18.94675425261
19471,Męcka Wola,51.60910272599,18.84686260735
19505,Sieradz Męka,51.61513716082,18.77681534113
19513,Sieradz Warta,51.60287558176,18.73002291157
19489,Sieradz,51.59775671857,18.71469214251
45351,Sędzice,51.62881147064,18.57030599483
45344,Błaszki,51.6736341489,18.47122193039
45336,Skalmierz,51.69730519018,18.43020210808
45328,Radliczyce,51.72329777994,18.34993935063
45310,Opatówek,51.74334955902,18.22791781486
45294,Kalisz Winiary,51.73348569898,18.14153905968
45245,Kalisz,51.74278329437,18.07118445486
45278,Kalisz Szczypiorno,51.72600891317,18.02737160699
45203,Nowe Skalmierzyce,51.70819767368,17.99797696306
45229,Ociąż,51.70211494143,17.93411779451
45971,Czekanów,51.68542567962,17.8603899342
45906,Ostrów Wielkopolski,51.6496675147,17.80517738591
44883,Biniew,51.73918451684,17.79240435171
44867,Bronów,51.7950380985,17.77404774263
44859,Taczanów,51.84056123736,17.75627321281
44842,Pleszew,51.89250513527,17.73247445481
44834,Kotlin,51.91456671823,17.64923426501
44826,Witaszyce,51.93609338545,17.56245356249
44701,Jarocin,51.9691396654,17.49470003554
44735,Mieszków,52.02335477922,17.4403764918
30288,Chocicza,52.06985432781,17.34996730267
30270,Solec Wielkopolski,52.10977178215,17.31959222659
30262,Sulęcinek,52.13866580155,17.30881708466
30205,Środa Wielkopolska,52.21817178112,17.27455870753
30221,Pierzchno,52.26311281639,17.15795507941
30247,Kórnik,52.28198864559,17.10344812142
30239,Gądki,52.30204721336,17.04527044104
28563,Poznań Krzesiny,52.341777407,16.9753880341
28522,Poznań Starołęka,52.36636571112,16.9339736889
28555,Poznań Dębina,52.37340668663,16.91072688221
30601,Poznań Główny,52.40162558145,16.91158327395
280417,Izabelów,51.61000349103,18.91165559508
279915,Zator Park Rozrywki,50.00540147057,19.4053396529
78113,Zator,50.00218620436,19.42935311002
80101,Skawina,49.97714043884,19.82179967402
258460,Kraków Sanktuarium,50.01381723595,19.93429615211
80036,Kraków Łagiewniki,50.02325078948,19.93377879211
239138,Kraków Podgórze,50.04144753293,19.96005213439
79939,Kraków Zabłocie,50.04802936723,19.95755792172
80416,Kraków Główny,50.06861309734,19.94780299902
13003,Kostrzyn,52.5914545933,14.64698057926
179214,Küstrien-Kietz,52.56849125867,14.60775475394
140297,Gorgast,52.56319396151,14.55097853601
140231,Werbig,52.56474614854,14.40531312883
140294,Seelow-Gusow,52.55931651814,14.3514704597
140299,Alt Rosenthal,52.55037653692,14.27865921915
140293,Trebnitz,52.53825688029,14.21687721133
140292,Obersdorf,52.53688647939,14.16762112498
140288,Müncheberg (Mark),52.5246358025,14.10004555643
140286,Rehfelde,52.52845430983,13.92266034007
140304,Herrensee,52.52989186938,13.88665169209
140282,Strausberg,52.53210279244,13.83351444125
140277,Berlin Mahlsdorf,52.5119507679,13.61079453349
140533,Berlin Lichtenberg,52.50995268751,13.49629639506
140168,Berlin Ostkreuz,52.50325257854,13.46925972819
140296,Golzow (Oderbruch),52.5625417657,14.51218842924
179216,Görlitz,51.14664260811,14.97892085193
51847,Zgorzelec,51.14018025005,15.00259207693
25809,Rzepin,52.34992601511,14.81489734115
25924,Kunowice,52.34179675959,14.63860609931
233169,Słubice,52.33595458924,14.59507038591
179212,Frankfurt (Oder),52.33643454168,14.54657617299
24000,Białystok,53.13357012396,23.1353969616
24190,Wasilków,53.19794863109,23.17681023032
24216,Czarny Blok,53.24852216112,23.20921213215
24224,Wólka Ratowiecka,53.27962158213,23.24356799945
24232,Czarna Białostocka,53.30561866908,23.27966765671
24240,Machnacz,53.33136054596,23.31764179735
24257,Rozedranka,53.35910923869,23.36548483305
190012,Geniusze,53.38232133906,23.43553435143
24802,Sokółka,53.40325782489,23.50737489028
24836,Kundzin,53.43949596834,23.59077712249
24844,Czuprynowo,53.47224486644,23.63154489206
25007,Kuźnica Białostocka,53.51153439649,23.64210453598
12807,Suwałki,54.10586069177,22.94531372953
12922,Płociczno koło Suwałk,54.0382974074,22.9487626093
12930,Szczepki,53.96698504512,22.98439850794
12948,Blizna,53.90637837021,23.01496241505
12955,Augustów Port,53.86251706655,23.00372660034
12963,Augustów,53.85269715953,23.02612300308
24943,Balinka,53.76812163045,23.1608199315
24935,Jastrzębna,53.74579686539,23.19831801078
24927,Ostrowie Biebrzańskie,53.71963009642,23.24394815031
24919,Kamienna Nowa,53.69120801043,23.26306948383
24893,Dąbrowa Białostocka,53.64823698271,23.36495438078
24885,Różanystok,53.62317198592,23.39223814144
24877,Sidra,53.54476453004,23.44666271808
24869,Racewo,53.49795909662,23.48457830612
24851,Gliniszcze,53.46581147083,23.5010527552
24273,Białystok Fabryczny,53.14024184289,23.18444390816
24281,Kuriany,53.11119978029,23.32128220858
24299,Zajezierce,53.10138172476,23.35805805637
24323,Żednia,53.08702830397,23.46981780015
24331,Sokole Białostockie,53.0862875424,23.51135010435
24349,Waliły,53.1081649054,23.65107129355
279919,Białystok Zielone Wzgórza,53.11686060601,23.1054335779
24612,Klepacze,53.10261875846,23.08042288678
24596,Niewodnica,53.0822061838,23.04483340809
24570,Trypucie,53.07123675177,23.02576706505
24562,Baciuty,53.04686321417,22.98318241141
24554,Bojary,53.0277775866,22.94979974275
24547,Uhowo,53.0042481735,22.90869843918
24539,Łapy,52.99023412489,22.88397113609
24646,Łapy Osse,52.97418477007,22.84038472409
24653,Zdrody Nowe,52.9544036425,22.78320831853
24661,Racibory,52.92902337041,22.70994250793
24687,Jabłoń Kościelna,52.90827493384,22.65024575459
24695,Szymbory,52.89250771786,22.6050426491
24638,Szepietowo,52.87006765067,22.54107530054
24711,Dąbrowa Łazy,52.84118185254,22.45877980113
24729,Kity,52.82800499593,22.42147563815
24737,Czyżew,52.79971278558,22.34214662433
23549,Sokoły,52.9998867729,22.71915256441
23531,Kulesze Kościelne,53.01991432215,22.51953184068
23465,Śniadowo,53.04385448775,21.99063777387
23440,Kurpie,53.05582765746,21.75462482214
23309,Ostrołęka,53.05607334229,21.61671868584
264544,Białystok Nowe Miasto,53.10637829631,23.11402462566
24372,Białystok Stadion,53.09799296238,23.1292194196
264545,Hryniewicze,53.07260231049,23.128056
24364,Lewickie,53.02805209369,23.12476246158
24380,Hołówki Duże,52.97136631736,23.09527816219
24398,Zimnochy,52.95480321897,23.0855189777
24414,Strabla,52.90154474544,23.11328791854
24422,Rajsk,52.82876277657,23.1486986597
264546,Orzechowicze,52.81080243197,23.15877636909
24430,Bielsk Podlaski,52.7617180417,23.18770672342
24455,Lewki,52.73030237084,23.21155120283
24521,Podbiele,52.69186275759,23.21047422971
24513,Gregorowce,52.66228641241,23.24183003885
280330,Gregorowce Południowe,52.64787128082,23.25801530978
25312,Suchowolce,52.6170105616,23.28394220465
25296,Kleszczele,52.56101979067,23.32892890044
25205,Czeremcha,52.51867068876,23.35354454233
281058,Repczyce,52.54537203533,23.35557340707
25403,Hajnówka,52.73242303431,23.58373045385
25437,Orzeszkowo,52.68168555944,23.53360467291
178019,Witowo,52.63963520548,23.4851332601
25262,Policzna,52.58936382777,23.42375289837
25254,Dobrowoda,52.56148566886,23.39126533817
264547,Mikłasze,52.72693750246,23.31597650528
118257,Orlanka,52.72696209944,23.34840733331
118265,Morze,52.73040794059,23.41123589682
118273,Stare Berezowo,52.7319166517,23.45341023279
118281,Chytra,52.73909818208,23.51503458583
25320,Borowiki,52.48207606321,23.21520624537
25346,Nowy Nurzec,52.47256037859,23.17662271891
25353,Nurzec,52.46006477662,23.08304835449
25361,Sycze,52.42921479271,22.99842081349
25387,Siemiatycze,52.39102692267,22.9450162209
39784,Fronołów,52.36085682793,22.92909917791
39776,Sarnaki,52.32522762664,22.87979228703
39768,Platerów,52.30105256082,22.82068389815
39750,Patków,52.27087460635,22.74549011639
39743,Niemojki,52.25866465828,22.70130330423
39727,Cierpigórz,52.22605726444,22.59473850661
39719,Mordy Miasto,52.20342623152,22.52156014484
39693,Mordy,52.19581050689,22.49657249074
39453,Krzymosze,52.17795326288,22.43917473743
39438,Stok Lacki,52.16213488444,22.38828666005
39404,Siedlce,52.16181364664,22.27167427003
39909,Łuków,51.9410027565,22.39151672618
179080,Łuków Zapowiednik,51.93202696493,22.41436825201
39958,Matysy,51.9399922711,22.49385434593
264894,Szaniawy,51.94685973333,22.54441515871
40865,Brzozowica,51.95371819587,22.60754507414
40873,Misie,51.95931284033,22.68816927312
40832,Międzyrzec Podlaski,51.97602474764,22.7854278251
40881,Sitno,51.98578893745,22.86611090352
40899,Szachy,51.99170421802,22.91042567244
264896,Sokule,51.99794370436,22.95715495897
40923,Porosiuki,52.01182946062,23.06217154641
40808,Biała Podlaska,52.02033370388,23.1305732068
40956,Ogrodniki,52.00079667487,23.23971751922
40972,Perkowice,51.99660882906,23.27986922878
40949,Chotyłów,51.99684579892,23.3558781676
40980,Dobrynka,51.99856348797,23.44132916868
251575,Małaszewicze Przystanek,52.02702328044,23.53101906754
254956,Kobylany,52.03755200442,23.56063167725
40998,Terespol,52.07398543681,23.60112306555
265022,Biała Podlaska Wschodnia,52.02062600362,23.16159365416
177923,Siedlce Wschodnie,52.14431438014,22.29785462698
39461,Białki Siedleckie,52.12860906833,22.30943645767
39479,Kosiorki,52.10710676855,22.33601208466
39487,Borki Kosy,52.08898435195,22.358397
39495,Dziewule,52.0552074299,22.38617019511
39529,Radomyśl,52.03111220148,22.38099972884
39925,Krynka Łukowska,52.00671762606,22.37578931779
47506,Słotwiny,51.72235983712,19.83916309828
47548,Wykno,51.66063181725,19.90466318725
47555,Zaosie,51.63376960337,19.93335575104
47563,Skrzynki,51.60234983782,19.96677979977
47605,Tomaszów Mazowiecki,51.54681097307,20.03376730833
49759,Jeleń,51.50209500077,20.07295687838
49742,Bratków,51.45509305775,20.11525719076
279431,Tomaszówek,51.44907936699,20.12222169757
49734,Szadkowice,51.41962710502,20.16854329263
49726,Słomianka,51.40136200359,20.20464138208
49700,Opoczno,51.37289664142,20.27150690032
49775,Sitowa,51.33911487162,20.32434466982
49767,Petrykozy,51.29540763845,20.36347074789
49783,Ruda Białaczowska,51.26229421231,20.38234303548
49536,Kornica,51.21701011892,20.40502412532
49502,Końskie,51.19021723079,20.42286514163
49551,Wąsosz Konecki,51.14508613919,20.47778069437
49577,Czarniecka Góra,51.14369285324,20.51859050721
49544,Stąporków,51.1432547936,20.57549970523
49619,Wólka Plebańska,51.15339605073,20.632186442
49585,Sołtyków,51.13778609774,20.69128985882
48298,Gilów,51.11947194438,20.73002097845
48272,Bliżyn,51.11054789694,20.756864537
48306,Brzask,51.09711730716,20.80366553676
48314,Skarżysko Milica,51.10821053049,20.85108516455
48009,Skarżysko Kamienna,51.11591040278,20.88136602447
40113,Łuków Łapiguz,51.92473284937,22.35988793065
40121,Sarnów,51.84302360449,22.29603822872
40139,Borowina,51.82495112991,22.27002586838
40154,Krzywda,51.79499692911,22.20518390974
40147,Hordzieżka,51.75438767628,22.16067523108
40162,Okrzeja,51.73174623917,22.13606765552
49890,Grabów Szlachecki,51.70371988546,22.09648639482
49882,Leopoldów,51.66824587786,22.01254455217
260715,Ryki,51.606333,21.92220593492
49809,Dęblin,51.57813499126,21.83432672884
50047,Skoki Borowa,51.53922678922,21.84921224537
50054,Gołąb,51.50529513463,21.90998663048
50005,Puławy Azoty,51.47498219493,21.94893818373
50013,Puławy Chemia,51.44633370451,21.96838543451
50021,Puławy Miasto,51.42721669507,21.98475355656
50039,Puławy,51.41033808928,22.01157478274
50088,Końskowola,51.3984549469,22.04833535824
50179,Klementowice,51.36287685657,22.10991307614
50195,Łopatki,51.3296383548,22.15144015997
50104,Nałęczów,51.31807269238,22.21296795595
49510,Czesławice,51.30738889456,22.2633606036
50138,Sadurki,51.28570381579,22.28536842202
50146,Miłocin Lubelski,51.26879670941,22.31249562624
50161,Motycz Leśny,51.23779406433,22.37217752177
50153,Motycz,51.22135900427,22.42388801851
50542,Stasin Polny,51.21349855366,22.47504376267
262848,Lublin Zachodni,51.21886871976,22.50866684061
50500,Lublin Główny,51.23135643241,22.56920429158
50468,Lublin Północny,51.24229362694,22.59959854206
50484,Świdnik Miasto,51.22379900765,22.69500085715
50492,Świdnik Wschód,51.2210525917,22.7140210491
50682,Minkowice,51.21712775975,22.76468884376
50518,Podzamcze,51.20970769583,22.78739663953
50690,Dominów,51.21235689099,22.84307805032
50658,Jaszczów,51.20196808359,22.91093749445
50674,Biskupice,51.161208441,22.9471446445
50666,Trawniki,51.13598108505,22.99342727878
50831,Wólka Kańska,51.12839124651,23.0664771029
50856,Kanie,51.12465736936,23.10405224789
50864,Zalesie Krasieńskie,51.12172756458,23.16622294325
50807,Rejowiec,51.11755257754,23.23950290941
50930,Zawadówka,51.12404105479,23.35546339651
50948,Chełm Miasto,51.13799468398,23.45814500337
50906,Chełm,51.14124000061,23.49326282389
46466,Bedoń,51.73172806764,19.64385269425
46524,Justynów,51.73077230135,19.68390370892
46516,Gałkówek,51.72972250022,19.73104248686
47282,Żakowice Południowe,51.72988187815,19.78781955981
48884,Tomaszów Mazowiecki Białobrzegi,51.52457892984,20.06592748404
48918,Brzustów,51.49365867008,20.14672098398
48892,Antoniów,51.47586606015,20.19896411311
48868,Dęba Opoczyńska,51.48194967038,20.25791999007
48959,Opoczno Południe,51.35914690831,20.23239611506
64899,Włoszczowa Północ,50.85670346333,19.94616149783
64949,Czarnca,50.82390297575,19.94499263133
64808,Włoszczowa,50.83775009492,20.01541304641
64758,Ludynia Dwór,50.84745009017,20.1142627906
64725,Ludynia,50.85212670365,20.16283455748
64741,Bukowa,50.85932663943,20.20124384934
64709,Małogoszcz,50.85012704616,20.27339012741
64774,Wierna Rzeka,50.86521395306,20.31300370999
64766,Rykoszyn,50.86817066536,20.37897843457
64782,Piekoszów Łaziska,50.87052249515,20.44779395379
280410,Piekoszów,50.87761966331,20.48927663684
63628,Szczukowskie Górki,50.88329054102,20.52523957045
63636,Kielce Ślichowice,50.88875296163,20.58405874201
63503,Kielce Herbskie,50.88581644175,20.60315942235
63552,Kielce Główne,50.87428713415,20.61797141743
47886,Radomsko,51.07473698255,19.43759879597
47878,Bobry,51.0284182716,19.40457837587
63438,Widzów Teklinów,50.98130615046,19.36742516675
63446,Jacków,50.96472449825,19.35485516009
63420,Kłomnice,50.9158361372,19.34150310562
63388,Rzerzeczyce,50.89743803914,19.32877040977
63354,Rudniki koło Częstochowy,50.87825794538,19.23253785427
63099,Częstochowa Aniołów,50.83540282843,19.15186645656
62653,Częstochowa,50.80863803089,19.12097955749
47704,Piotrków Trybunalski,51.41082312766,19.68475819874
47738,Milejów,51.35557131303,19.67576430025
47795,Rozprza,51.30161376086,19.66015796413
47803,Luciążanka,51.27747252872,19.64830085587
47811,Wilkoszewice,51.25174320032,19.63053295307
47829,Gorzkowice,51.21824108365,19.60311984414
47837,Gorzędów,51.19705891309,19.5440378552
47845,Kamieńsk,51.18599297844,19.49827763708
47852,Gomunice,51.16388874572,19.486879643
47860,Dobryszyce koło Radomska,51.12418098953,19.44425152138
46532,Żakowice,51.73219645271,19.79104290298
47415,Chrusty Nowe,51.69491809,19.79434656681
47423,Rokiciny,51.66760863454,19.78071168387
47431,Łaznów,51.63143265308,19.75510544353
47449,Wolbórka,51.59342087867,19.72353879822
47399,Baby,51.53672511832,19.71666314802
47787,Moszczenica,51.50348926123,19.70043071063
47746,Jarosty,51.46153361821,19.69314687797
32201,Kutno,52.22701929483,19.34870615211
32276,Ostrowy,52.29923699789,19.19158677795
21766,Rutkowice,52.36167955691,19.15905632329
21758,Kaliska Kujawskie,52.41190907786,19.12392194677
21741,Wiktorowo,52.46428159846,19.10633478788
21683,Czerniewice,52.50895836903,19.08934113293
21733,Gołaszewo Kujawskie,52.54652998608,19.0912225776
21717,Warząchewka,52.5847377689,19.08077691384
21600,Włocławek,52.65299481041,19.05898571719
21642,Włocławek Zazamcze,52.6681799647,19.03827462692
178111,Brzezie,52.69628600796,18.96499053468
21659,Lubanie,52.74246066148,18.92430247059
21535,Nieszawa Waganiec,52.80312571824,18.87017088688
21543,Turzno Kujawskie,52.83350450139,18.78086236224
21501,Aleksandrów Kujawski,52.87577962272,18.69652461131
19778,Otłoczyn,52.91267765555,18.69266907185
19752,Toruń Czerniewice,52.97495301956,18.67391481421
19703,Toruń Główny,53.00028543145,18.61523577175
19786,Toruń Kluczyki,52.99005809783,18.57845761241
259135,Cierpice Kąkol,52.99195451886,18.44625605488
19844,Solec Kujawski,53.07834855349,18.22523224971
16717,Bydgoszcz Wschód,53.12792718815,18.08195121957
16725,Bydgoszcz Bielawy,53.13172228523,18.05393881327
18374,Bydgoszcz Leśna,53.14351512249,18.03218214594
18408,Bydgoszcz Główna,53.13528294461,17.99163586184
19760,Brzoza Toruńska,52.96139683976,18.68526576877
19810,Cierpice,52.98877404353,18.4699276489
46789,Łódź Żabiniec,51.79352425398,19.40702408284
251556,Łódź Radogoszcz Zachód,51.82164942214,19.41554277867
46805,Zgierz,51.84930968801,19.42559837759
251558,Zgierz Jaracza,51.86398312085,19.42214655952
46813,Zgierz Północ,51.86915774189,19.38362542195
46821,Zgierz Kontrewers,51.86480412422,19.34012794576
280343,Jedlicze koło Zgierza,51.86878760954,19.321662602
46839,Grotniki,51.88729242701,19.31108618651
32557,Chociszew,51.92387673676,19.26725956812
251557,Ozorków Nowe Miasto,51.95881116578,19.269708
32540,Ozorków,51.97250907933,19.26593183935
32532,Sierpów,52.01848268246,19.2224611786
32524,Łęczyca,52.04922785545,19.19323861063
32581,Gawrony,52.11247119463,19.21974230556
32516,Witonia,52.15693325031,19.27661239564
19828,Przyłubie,53.04983131727,18.32408873476
16782,Bydgoszcz Łęgnowo,53.10760214942,18.11293766861
19794,Toruń Miasto,53.01255851114,18.61958619091
19901,Toruń Wschodni,53.02627374254,18.63324836377
24042,Białystok Starosielce,53.12133576085,23.08656280864
24059,Białystok Bacieczki,53.15092967256,23.07171681973
24067,Fasty,53.1767017601,23.02492544428
24075,Dobrzyniewo Duże,53.19434708606,23.002746358
24083,Borsukówka,53.22733793467,22.93083655236
24091,Knyszyn,53.28463049794,22.89599857642
24117,Zastocze,53.31236921407,22.857372896
24125,Czechowizna,53.35117161474,22.83676115472
24133,Mońki,53.40236162335,22.79687370076
24141,Goniądz,53.45937931057,22.7263862125
24158,Osowiec,53.47288699902,22.65683136153
24166,Podlasek,53.55790339299,22.53482581267
24182,Ruda,53.58936189187,22.52060171512
12252,Grajewo,53.64989283042,22.44843402862
12229,Prostki,53.69563443628,22.43140439706
12245,Lipińskie Małe,53.73640010911,22.39746598211
12237,Ełk Szyba Wschód,53.80114713046,22.37289058286
11809,Ełk,53.82500922001,22.36246191495
23333,Grabowo,53.07284167846,21.53316019893
23341,Nowa Wieś Kościelna,53.08472623382,21.41255735278
23358,Zabiele Wielkie,53.08460380225,21.34836671591
23366,Jastrząbka,53.1326426275,21.24736052513
23374,Parciaki,53.17479952878,21.14110861244
23382,Olszewka,53.21430815735,21.05940038359
23390,Raszujka,53.24610249644,21.00394457275
23416,Chorzele,53.27941854423,20.9430678889
23432,Wielbark,53.4002127907,20.95288037181
10645,Jesionowiec,53.44669187808,20.9958118093
10629,Szymany,53.48692840552,20.96654890895
10637,Siódmak,53.52452290193,20.97143962765
10603,Szczytno,53.56020424599,20.99707764687
10652,Grom,53.60628292414,20.86202181998
9399,Pasym,53.63217634407,20.76479110618
9381,Marcinkowo,53.69524925603,20.67143588411
9407,Klewki,53.73629872913,20.56823357112
9209,Olsztyn Główny,53.78558384702,20.49670073688
63529,Kielce Piaski,50.8895639772,20.62523528266
63776,Tumlin,50.96732863626,20.60216304692
63701,Zagnańsk,50.97442023403,20.66365470763
63735,Łączna,50.99176928615,20.79888173922
48264,Berezów,51.02371297115,20.83616670992
48231,Suchedniów,51.04627759458,20.84977392972
48249,Suchedniów Północny,51.06518560671,20.84916
48058,Skarżysko Zachodnie,51.10038879243,20.85951697038
63784,Kostomłoty,50.92148738373,20.61595349578
64303,Sędziszów,50.56579676406,20.05489891086
64535,Krzcięcice,50.5875118535,20.14029694841
64519,Potok,50.61732129093,20.19641482242
64451,Jędrzejów,50.64475357679,20.27593224281
64550,Miąsowa,50.71940161772,20.36509309406
63925,Sobków,50.7315119285,20.43061005875
63883,Wolica,50.75338374973,20.47006158651
63859,Radkowice,50.78039304708,20.52863341989
63800,Sitkówka Nowiny,50.81861605853,20.55034598207
63826,Kielce Słowik,50.83350060074,20.5387153956
63586,Kielce Białogon,50.85516319818,20.57426421467
280494,Podchojny,50.66438635965,20.32097847893
63867,Brzeziny,50.77596645401,20.56691460384
63875,Nida,50.76089671872,20.57826160311
64097,Dębska Wola,50.70121037056,20.59724542654
64089,Włoszczowice,50.65219963626,20.58678159755
64055,Kije,50.60769194642,20.57783712143
64063,Stawiany Pińczowskie,50.58143812821,20.59089480758
64048,Grochowiska,50.49434032229,20.64190535019
64006,Busko Zdrój,50.46191337326,20.68531237549
48033,Skarżysko Kościelne,51.12214962411,20.91765162426
48132,Marcinków,51.09334359238,20.97997614605
48165,Wąchock,51.08016466726,21.01555198409
48173,Starachowice,51.05147535154,21.05816631434
48181,Starachowice Wschodnie,51.04173127118,21.07907576336
48199,Starachowice Michałów,51.01494618865,21.1088913667
49296,Styków Iłżecki,51.01088617932,21.15112220574
49288,Brody Iłżeckie,51.02149697398,21.19987414463
49270,Staw Kunowski,51.00557293132,21.24509594219
49254,Kunów,50.96809596611,21.29495750064
49262,Boksycka,50.94992490941,21.32280658146
49205,Ostrowiec Świętokrzyski,50.93359476679,21.37783609799
49320,Bodzechów,50.91354598509,21.43417594671
49346,Brzustowa Opatowska,50.89843175322,21.48264882803
49353,Ćmielów,50.88794124295,21.52877498141
49445,Drygulec,50.8756965334,21.5776858609
49437,Jasice,50.85285744691,21.62706996845
49452,Jakubowice,50.81104512557,21.66453103989
65342,Stary Grabów,50.76419828875,21.74991487384
65334,Dwikozy,50.73221381105,21.79114610688
65359,Metan,50.69168664645,21.80620906591
65300,Sandomierz,50.6605739154,21.76532525756
48124,Lipowe Pole,51.15507722674,20.90104708466
48082,Szydłowiec,51.20800654822,20.92344117791
49155,Gąsawy Plebańskie,51.23195205302,20.94724344048
49106,Jastrząb,51.24884163472,20.98456318385
49148,Wola Lipieniecka,51.27690753807,21.02637554233
49130,Ruda Wielka,51.30244378552,21.04409481349
279429,Dąbrówka Zachodnia,51.30999824462,21.04601598421
49163,Rożki,51.33928768147,21.0547064762
48413,Radom Południowy,51.34948524788,21.10112605333
48355,Radom Główny,51.39107956687,21.1559020539
51532,Szastarka,50.85343406341,22.33194684844
51540,Sulów,50.90562321146,22.33315692561
51508,Kraśnik,50.92946229381,22.2834988062
51367,Pułankowice,50.95903297525,22.30633603907
51359,Wilkołaz,50.98591617999,22.32906651339
51342,Wilkołaz Wieś,51.00715881726,22.33593525232
51334,Leśniczówka,51.05002354888,22.35691230776
51326,Niedrzwica Kościelna,51.08016276338,22.36340577206
51300,Niedrzwica,51.11450164291,22.37711215383
51391,Majdan,51.14835059844,22.42651807938
51383,Krężnica Jara,51.15312853918,22.46579242969
51375,Lublin Zemborzyce,51.17124946362,22.50247638443
242955,Lublin Zadębie,51.25799500005,22.60998288095
242954,Lublin Ponikwoda,51.26609978214,22.60603503439
50641,Rudnik,51.28761071223,22.62254239874
280442,Łagiewniki,51.30518435787,22.61726615667
50633,Ciecierzyn,51.31927989537,22.60828479305
50625,Bystrzyca koło Lublina,51.34848122259,22.63769417313
242974,Niemce,51.36291890987,22.64641670898
50617,Wandzin,51.39852600337,22.62993170973
50609,Lubartów,51.44553685262,22.60821456346
242975,Lubartów Lipowa,51.46414800452,22.5994082123
242976,Lubartów Słowackiego,51.47314710327,22.60518820398
251842,Pałecznica,51.49045780759,22.65905083189
40071,Tarło,51.50630158131,22.68739723964
263503,Berejów,51.51419832723,22.72155081666
40055,Brzeźnica Bychawska,51.52901231232,22.74273471191
251843,Zabiele,51.5436432332,22.76371040874
40048,Gródek,51.57970100163,22.79404887325
263502,Laski,51.60840882314,22.84183571297
40030,Parczew,51.62622126255,22.87159169588
242977,Parczew Kolejowa,51.6346649681,22.88088092527
40022,Milanów,51.70221187971,22.87511377034
280949,Bezwola,51.77177649126,22.80434608047
280601,Ustrzesz,51.80222327338,22.72969590116
39974,Radzyń Podlaski,51.82712515124,22.66861437678
39990,Jaski,51.85937253766,22.5914095974
280388,Aleksandrów,51.90437184604,22.48190150594
258468,Zamość Wschód,50.72251787642,23.27600378741
258467,Zamość Starówka,50.71700579393,23.26270216325
65904,Zamość,50.71354997323,23.239233
259546,Mokre,50.70803274125,23.20536256218
66050,Zawada,50.71603303507,23.12532976323
65987,Złojec,50.76862105061,23.10092098551
65979,Ruskie Piaski,50.80164767204,23.09563070281
51227,Tarzymiechy,50.85445265368,23.12222303107
254539,Izbica,50.89063190852,23.15544673968
259553,Wólka Orłowska,50.92703027536,23.18342823677
51177,Krasnystaw Miasto,50.98511134643,23.18297937705
51219,Krasnystaw Fabryczny,51.02438431113,23.18280349339
51235,Żulin,51.06214007887,23.1719494515
242953,Zagrody Kościół,51.07852483401,23.19047218651
66209,Bełżec,50.37665766298,23.4498879849
66258,Bełżec Drugi,50.38074504079,23.4035960436
66266,Maziły,50.4050220613,23.31457209222
66241,Susiec,50.41612738837,23.22656415988
66274,Nowiny,50.44913233423,23.14134511934
66282,Długi Kąt,50.48247415611,23.10185437924
66324,Józefów Roztoczański,50.51801948439,23.03973331784
66589,Zwierzyniec,50.60920539748,22.98429796271
280387,Żurawnica,50.64212654875,22.9600310111
280397,Szczebrzeszyn,50.68085834288,22.98769263267
66076,Klemensów,50.69781102868,23.03879070575
66068,Wólka Niedzieliska,50.70873368048,23.0870241873
84954,Hrebenne,50.29833870559,23.57647612879
66233,Lubycza Królewska,50.33997277742,23.52993472566
51557,Polichna Kraśnicka,50.83083505722,22.30574996441
51573,Rzeczyca Kolonia,50.84167253778,22.2672216704
65268,Rzeczyca,50.83978915737,22.20800203321
65250,Potok Kraśnicki,50.7964194126,22.1632963215
65243,Zaklików,50.76843285504,22.10793206546
262829,Zaklików Miasto,50.75496097548,22.09291528836
65235,Lipa,50.68968537852,22.06812494819
65284,Kępa,50.6541808263,22.03274785358
65276,Pilchów,50.61697601424,22.02697698823
65003,Stalowa Wola Rozwadów,50.59132724573,22.04195261785
65029,Stalowa Wola Centrum,50.57066449887,22.05472239413
65037,Stalowa Wola,50.56263712175,22.06079952674
65052,Stalowa Wola Południe,50.54517940226,22.07868167341
243081,Lublin Airport,51.23498178221,22.71539751653
64352,Klimontów,50.52526299331,20.03007016404
64337,Kozłów,50.47472660786,20.01194974526
64626,Tunel,50.43349907561,19.9911906973
79483,Pstroszyce,50.39901132582,20.00841410415
79467,Miechów,50.35364233862,20.01075667005
79459,Kamieńczyce,50.32751529912,20.00562069655
79434,Szczepanowice,50.30118033085,20.02462340113
79426,Smroków,50.27449824017,20.04688964
79384,Słomniki,50.24940298997,20.06372501251
79376,Słomniki Miasto,50.23594873408,20.07622835597
79368,Niedźwiedź,50.20447268689,20.08100236335
79350,Goszcza,50.18473963325,20.06117461057
79343,Łuczyce,50.16264864332,20.07445414951
79335,Baranówka,50.14644540741,20.09538709755
79327,Zastów,50.12387082973,20.06919489425
79236,Kraków Batowice,50.10751778906,19.99543073941
280603,Kraków Piastów,50.1069994668,20.01287840718
65227,Turbia,50.61781172696,21.97261494833
65169,Zbydniów,50.63466693338,21.92101049758
65409,Grębów,50.60435473171,21.83768552287
19612,Wielowieś,50.62518771919,21.75847334143
65458,Sobów,50.59233967252,21.7357644965
65466,Tarnobrzeg,50.56800523269,21.69629665688
259156,Chmielów Zagumnie,50.52363490875,21.68586052513
241558,Cygany,50.51268628593,21.69704854489
65490,Jadachy,50.48289316397,21.69641543371
241559,Tarnowska Wola,50.45157475985,21.73572063446
65524,Dęba Rozalin,50.42881218195,21.74313842343
65532,Nowa Dęba,50.41544555368,21.7398056001
262192,Huta Komorowska,50.38939441341,21.71572415582
65540,Majdan Królewski,50.37890492933,21.72522024768
262191,Majdan Królewski Podlasek,50.3629543429,21.73667830675
65557,Komorów Podmurynia,50.34955327331,21.73303661336
82990,Cmolas,50.29397577417,21.75210328284
82982,Zarębki,50.27243647451,21.76212270349
82974,Kolbuszowa,50.24608371071,21.78448994467
280253,Kolbuszowa Górna,50.22265755517,21.80548672024
82966,Widełka,50.20166237014,21.87285711373
82958,Budy Głogowskie,50.16827354139,21.91803393239
82941,Głogów Małopolski,50.14750985149,21.95933427606
280255,Głogów Małopolski Niwa,50.13665486389,21.9647480086
241560,Rogoźnica koło Rzeszowa,50.11691142317,21.96892261505
82925,Zaczernie,50.09535376351,21.97939552251
241561,Rzeszów Miłocin,50.07556107463,21.9872072339
280254,Rzeszów Staromieście,50.06259576799,21.99238362698
261251,Rzeszów Zachodni,50.05270823989,21.99420066138
82669,Rzeszów Główny,50.04307416499,22.00594817934
84947,Siedliska Tomaszowskie,50.261548941,23.5545618557
84863,Werchrata,50.24803149007,23.48817912685
84848,Horyniec Zdrój,50.19439523848,23.35696337607
179240,Basznia,50.17861368458,23.24903665057
84822,Basznia Dolna,50.18997122536,23.20733984158
84780,Lubaczów,50.16567020004,23.12485416158
84772,Oleszyce,50.15719182506,23.03683216704
84764,Nowa Grobla,50.08879058061,22.99354822973
84756,Korzenica,50.05586838082,22.9368853684
84749,Zagrody,50.05148692914,22.90527519002
84731,Bobrówka,50.0497086977,22.85868446173
84723,Surochów,50.01226454761,22.76820300168
84707,Munina,49.99010684012,22.7188414319
83261,Jarosław,50.01072068252,22.67726720859
83279,Pełkinie,50.04777639932,22.61164697961
83105,Przeworsk,50.06725141172,22.50268644933
83063,Grzęska,50.079965973,22.45310895676
83055,Rogóźno koło Łańcuta,50.08358412374,22.3629647166
83048,Kosina,50.08357401701,22.32343106755
83030,Głuchów,50.08347361425,22.27934204042
83022,Łańcut,50.08174555422,22.22795258547
82651,Krzemienica,50.08171302727,22.18688573626
82636,Strażów,50.06758645926,22.11531568221
82644,Rzeszów Załęże,50.05860240549,22.0696591094
280256,Rzeszów Pobitno,50.05245355583,22.03183935316
65078,Moskale,50.52459870736,22.10827506374
65086,Nisko Osiedle,50.52087580027,22.12274966276
65094,Nisko,50.5141100868,22.14069776275
65110,Nisko Racławice,50.50478790246,22.15771286305
65128,Nisko Podwolina,50.49548440435,22.17343777757
65136,Rudnik Stróża,50.45826194759,22.21677041669
65144,Rudnik nad Sanem,50.43587286757,22.24895093019
65151,Łętownia,50.36315934892,22.25649045743
83253,Nowa Sarzyna Kolonia,50.3311633003,22.33580688516
83246,Nowa Sarzyna,50.32065517764,22.34788645327
83238,Jelna,50.30390660531,22.36483947006
83220,Leżajsk,50.2631651672,22.42036043068
83188,Wierzawice,50.23899163375,22.46416359434
83170,Grodzisko Dolne,50.16959521614,22.50911192847
83147,Tryńcza,50.13704457978,22.53871014685
83139,Gniewczyna,50.10001865479,22.52112912415
64824,Żelisławice,50.80377932761,19.85844650587
63073,Koniecpol,50.77637636512,19.69978678459
279428,Koniecpol Centrum,50.77740729472,19.67327822356
63065,Koniecpol Magdasz,50.77249744577,19.65334037707
63040,Podlesie,50.76497005945,19.6043621268
63032,Staropole Częstochowskie,50.76464806032,19.52968932844
63024,Julianka,50.76464118903,19.47347407963
62885,Lusławice,50.76091482517,19.38754662474
62851,Turów,50.76821947956,19.31732371794
62877,Kusięta Nowe,50.77784162415,19.26137472439
62687,Częstochowa Raków,50.78767009632,19.15542534637
64600,Charsznica,50.39613327504,19.94131666764
64576,Gajówka,50.39456659702,19.87896710388
74385,Jeżówka,50.39968993806,19.8220768481
74377,Wolbrom,50.37600387466,19.77214537646
279914,Wolbrom Zachodni,50.37984569342,19.75873410166
74344,Zarzecze,50.36316608414,19.69859924173
74336,Chrząstowice Olkuskie,50.34446595425,19.68576593785
74310,Jaroszowiec Olkuski,50.34219928694,19.62162594935
74294,Olkusz,50.27429536999,19.57142644385
74203,Bukowno,50.26394669616,19.45818840808
74260,Bukowno Przymiarki,50.27537634549,19.40947354701
74252,Sławków,50.2954535138,19.37392425706
74880,Dąbrowa Górnicza Wschodnia,50.30334784202,19.3116132293
74815,Dąbrowa Górnicza Strzemieszyce,50.31086070807,19.26842998655
74971,Sosnowiec Kazimierz,50.28886677084,19.23202507323
75036,Sosnowiec Porąbka,50.27215327577,19.21641042525
73403,Sosnowiec Dańdówka,50.26552558602,19.17335746765
73478,Sosnowiec Południowy,50.26988844279,19.12518348557
74658,Sosnowiec Główny,50.27889039075,19.12631094158
73650,Katowice Szopienice Południowe,50.25886671293,19.09208831232
73619,Katowice Zawodzie,50.25734198839,19.05695515894
73312,Katowice,50.25761103501,19.01740878365
83949,Ustrzyki Dolne,49.42909295237,22.59633153409
83873,Ustianowa,49.43577908149,22.50758528441
83931,Olszanica,49.47660346718,22.43579596013
83923,Uherce,49.46535945234,22.39985167444
83865,Uherce Tunel,49.46398579904,22.38024472922
83857,Jankowce,49.48522079617,22.35879242152
83840,Lesko Łukawica,49.50548166344,22.33541964948
83832,Załuż,49.52935770929,22.31087210808
83758,Zagórz,49.51343861102,22.26428609352
83782,Nowy Zagórz,49.52120253899,22.25917712705
83600,Sanok,49.55275654138,22.21155719156
84319,Ostrów koło Radymna,49.95432715454,22.78367401632
84301,Radymno,49.93949300812,22.8290715277
84327,Sośnica Jarosławska,49.90129295175,22.85163642155
84335,Niziny,49.87880840942,22.86183314768
84343,Walawa,49.8622467779,22.85694300592
178476,Żurawica Rozrządowa,49.83246942889,22.83733470128
84202,Żurawica,49.81985050744,22.82451615306
84434,Przemyśl Zasanie,49.79333476461,22.77345105872
84400,Przemyśl Główny,49.78371640149,22.77800023019
280183,Przemyśl Wschodni,49.78463063724,22.80499642199
178392,Hurko,49.78526658903,22.86267933003
84582,Medyka Towarowa,49.78626479454,22.88429396717
84590,Medyka Rozrządowa,49.79406043396,22.91022237509
84509,Medyka,49.80463912694,22.9461970313
78402,Sucha Beskidzka,49.74044796278,19.58014866266
78535,Maków Podhalański,49.72682861133,19.6776473884
78543,Juszczyn,49.70688164496,19.6919856807
78550,Kojszówka,49.6903039652,19.72293810579
78568,Osielec,49.67500096224,19.75560806778
78576,Bystra Podhalańska,49.65855405259,19.7872931481
78584,Jordanów,49.63751028044,19.8325349356
78634,Skawa,49.63083873986,19.88014918827
78642,Skawa Środkowa,49.61251133286,19.90041578518
78709,Chabówka,49.59703816822,19.93661694549
78733,Rabka Zdrój,49.60937922513,19.95180472534
265251,Chabówka Stadion,49.5898110925,19.92032110155
78832,Rokiciny Podhalańskie,49.5786517269,19.90594662529
78824,Raba Wyżna,49.56570827118,19.88184531151
78840,Sieniawa,49.53898953032,19.92253328644
78949,Pyzówka,49.52106823238,19.96046086844
78931,Lasek,49.49876075385,19.97974805725
78907,Nowy Targ,49.47311287611,20.01558943355
78956,Szaflary,49.44042255717,20.01714663187
78972,Szaflary Centrum,49.42347508058,20.01908223823
265252,Bańska Niżna,49.3993981905,20.01619933963
78964,Biały Dunajec,49.37590045149,20.00710057452
78980,Poronin,49.34315915598,20.00358871285
265253,Poronin Misiagi,49.32974744156,19.99663531244
79020,Zakopane,49.30075799047,19.96301588666
239140,Kraków Grzegórzki,50.05743496953,19.94795858324
80002,Kraków Bonarka,50.02992971175,19.94653701246
80044,Kraków Swoszowice,50.00047967284,19.92834358865
262833,Kraków Opatkowice,49.98835169109,19.89829864153
80051,Kraków Sidzina,49.98552712511,19.87447002061
262832,Skawina Jagielnia,49.98127081687,19.84155097351
264914,Rzozów Centrum,49.95479917003,19.80434774816
80143,Rzozów,49.94564559224,19.80441849785
262206,Radziszów Centrum,49.93693816072,19.8068883201
80150,Radziszów,49.91813026674,19.80927797377
264915,Wola Radziszowska Lipki,49.9103844322,19.79341232806
80168,Wola Radziszowska,49.90642211754,19.77716836961
178077,Podolany,49.89819236475,19.75341793491
80176,Leńcze,49.89200841001,19.7301535991
80184,Przytkowice,49.89655519735,19.67988124685
78345,Kalwaria Zebrzydowska Lanckorona,49.87108770433,19.68870826434
78469,Stronie,49.83354894951,19.66954550477
78477,Stryszów,49.82560432418,19.62175697012
265358,Dąbrówka Jezioro Mucharskie,49.81430931646,19.59977062587
78527,Zembrzyce,49.77502113436,19.59141619613
79905,Kraków Płaszów,50.03446370099,19.97543319497
79210,Kraków Prokocim,50.02666439036,19.99815073008
79947,Kraków Bieżanów,50.02178259563,20.02802788675
262870,Kraków Złocień,50.01808,20.05117
79541,Kokotów,50.01783851075,20.06999086597
79533,Węgrzce Wielkie,50.01874874439,20.10700077931
79525,Podłęże,50.0181450061,20.16896741832
79632,Staniątki,50.01064666426,20.20667619106
79723,Szarów,50.0095440963,20.2565664707
79681,Kłaj,50.00177175506,20.30113293268
79640,Stanisławice,49.99198823537,20.354605258
79756,Cikowice,49.9849103114,20.38071206288
79657,Bochnia,49.9773503436,20.43153122078
79665,Rzezawa,49.98479053839,20.51508048839
79673,Jasień Brzeski,49.98702232955,20.55806725396
79806,Brzesko Okocim,49.98672857214,20.60975255869
79830,Sterkowiec,49.99434817535,20.68044885375
79848,Biadoliny,50.00376953715,20.73459294852
80663,Bogumiłowice,50.0075227307,20.87219959418
80671,Tarnów Mościce,50.00640467898,20.92448657621
80630,Tarnów,50.00531942647,20.97452997647
178473,Kłokowa,49.95329886183,20.95726657367
80952,Łowczówek Pleśna,49.92822908124,20.94957529885
80978,Łowczów,49.9128212015,21.00341313166
80986,Tuchów,49.8920200831,21.05657293692
81026,Lubaszowa,49.86530662224,21.0369630353
81034,Siedliska koło Tuchowa,49.86061638913,21.01947259144
81042,Chojnik,49.85084750666,20.98351444451
81059,Gromnik,49.83406596618,20.96109093565
81067,Bogoniowice Ciężkowice,49.79826770216,20.97655155797
81083,Pławna,49.75494075652,20.95087615985
81091,Bobowa,49.71649425673,20.95741556965
81125,Bobowa Miasto,49.70818608951,20.93904963508
81133,Jankowa,49.69501364066,20.9338337892
81141,Wilczyska,49.67608416715,20.94314708407
81604,Stróże,49.65475123367,20.97622435956
81679,Grybów,49.626085978,20.95727046809
81687,Ptaszkowa,49.60338960781,20.88161106
81737,Mszalnica,49.59290133024,20.82879990883
82131,Kamionka Wielka,49.57810222045,20.78176606974
82149,Nowy Sącz Jamnica,49.58753888167,20.74319341113
265357,Nowy Sącz Gorzków,49.59985267391,20.72200548525
81901,Nowy Sącz,49.60638197092,20.70217668123
265356,Nowy Sącz Dąbrówka,49.59742672081,20.67915678031
82057,Nowy Sącz Biegonice,49.58611736072,20.66054648824
82032,Stary Sącz,49.55908636084,20.64342048454
82065,Barcice,49.5265025792,20.64861183282
82073,Rytro,49.4865413333,20.68026774404
82081,Młodów,49.46921084405,20.69507722366
82099,Piwniczna Zdrój,49.44071314858,20.71738364403
82115,Piwniczna,49.43172200161,20.71710852298
82487,Krynica Zdrój,49.40965968433,20.95715117422
82453,Powroźnik,49.36821920082,20.93993818515
82446,Muszyna Zdrój,49.3579786409,20.89654897887
82404,Muszyna,49.34599381066,20.89367409099
82537,Milik,49.3458581736,20.85053116973
82545,Andrzejówka,49.34044830948,20.82115903599
82552,Żegiestów Zdrój,49.36274740922,20.80383286586
82529,Żegiestów,49.36748210209,20.78524181085
82560,Zubrzyk,49.38753661152,20.7537878376
82578,Wierchomla Wielka,49.40255338727,20.75523721033
82586,Łomnica Zdrój,49.41945420007,20.72489573541
80374,Kraków Łobzów,50.08198976793,19.91705852475
260937,Kraków Bronowice,50.08298189422,19.89220045173
80333,Kraków Mydlniki,50.08362241772,19.85973467332
80358,Kraków Mydlniki Wapiennik,50.09140529333,19.84416064182
236232,Kraków Business Park,50.10575289604,19.82342125397
80390,Zabierzów,50.11799519323,19.7984169409
77735,Rudawa,50.11882349315,19.71934487039
77701,Krzeszowice,50.13093009818,19.63411147213
77586,Wola Filipowska,50.13074910403,19.57768185465
77578,Dulowa,50.14046235854,19.52090114596
77503,Trzebinia,50.15412725631,19.45263331513
77834,Chrzanów Śródmieście,50.1440642364,19.41376705146
77800,Chrzanów,50.13341782456,19.39841785531
77909,Libiąż,50.11301687929,19.32686733695
77958,Chełmek,50.09971003596,19.25446014299
77123,Gorzów Chrzanowski,50.0734496522,19.24196852435
77107,Oświęcim,50.04166577323,19.20004194494
280602,Pisary,50.12851930743,19.68327819765
280247,Rzeszów Centrum,50.04313999014,21.99850737512
82602,Rzeszów Staroniwa,50.03856877442,21.98971295542
280246,Rzeszów Politechnika,50.02756567401,21.98395907342
82677,Rzeszów Osiedle,50.02260856722,21.97774924289
82735,Rzeszów Zwięczyca,50.00591723725,21.95723209677
280245,Boguchwała Dolna,49.99441968253,21.94361516798
82727,Boguchwała,49.98429472742,21.9345619346
280244,Lutoryż,49.96600278352,21.92261706862
82743,Wisłoczanka,49.95190605603,21.91486620835
82750,Babica,49.93502791924,21.90152097417
82792,Babica Kolonia,49.93378547873,21.87014523171
82768,Czudec,49.94032186294,21.83293480298
260901,Zaborów Błonia,49.92422069892,21.81951848651
82776,Zaborów,49.90733955202,21.83033091368
280239,Żarnowa,49.87742883723,21.81884323831
82784,Strzyżów nad Wisłokiem,49.8692549642,21.80143001666
280299,Strzyżów Zachodni,49.86870944373,21.77269756258
82826,Dobrzechów,49.8727034057,21.74436755176
261252,Markuszowa,49.87406100235,21.70559696693
82834,Kalembina,49.86928948731,21.68520057353
82842,Wiśniowa,49.8662205276,21.65229657936
82859,Frysztak,49.83125924255,21.61840303545
82867,Przybówka,49.79892644478,21.64725601673
82875,Wojaszówka,49.77617926654,21.65907679244
82883,Szebnie,49.75616713129,21.6155885506
260902,Jasło Fabryczne,49.7492937112,21.53372977379
83410,Jasło,49.73760818105,21.47056255334
83378,Gliniczek,49.73704197372,21.53848826939
83360,Tarnowiec,49.73627445126,21.57789973732
83386,Jedlicze Męcinka,49.72609275705,21.62609953589
83394,Jedlicze,49.71895301381,21.64829513859
83550,Krosno Turaszówka,49.70928074595,21.69817471348
83568,Krosno Polanka,49.70198572192,21.72205164866
83501,Krosno,49.69362843372,21.74929051956
83535,Krosno Miasto,49.6826876126,21.77269317516
83543,Targowiska,49.64962736987,21.82176022189
83576,Widacz,49.63262972231,21.84636706294
83584,Wróblik Szlachecki,49.61361079118,21.87836278244
83683,Milcza,49.60567398805,21.90260905994
83675,Besko,49.59059814912,21.95602982666
83725,Zarszyn,49.58419402356,22.01948210584
83667,Długie,49.57816890047,22.04942080656
83659,Nowosielce,49.56240926737,22.08555302149
83642,Sanok Dąbrówka,49.56908630102,22.15936440327
83634,Sanok Miasto,49.5559986871,22.19844179089
83352,Jasło Niegłowice,49.72616803131,21.45118653238
83337,Przysieki,49.73302681919,21.39364778459
81844,Skołoszyn,49.74509842784,21.33955299318
81836,Siepietnica,49.75447248373,21.29674224973
81786,Biecz,49.73277370969,21.26360892177
81828,Libusza,49.71172257478,21.24094962001
81703,Gorlice Zagórzany,49.69416026267,21.19548618257
81778,Gorlice Glinik,49.67199188627,21.17343306005
81760,Gorlice,49.66355851671,21.16266667306
179276,Medzilaborce,49.26160700171,21.90522874603
190044,Medzilaborce Mesto,49.2740173963,21.90095543325
84160,Łupków,49.24722949438,22.05922119511
178902,Nowy Łupków,49.25228349894,22.08288139505
84129,Komańcza,49.33881752699,22.07240673019
84111,Komańcza Letnisko,49.34631051186,22.08064910969
84095,Rzepedź,49.3717712909,22.11202687154
84087,Szczawne Kulaszne,49.40717687192,22.14305085794
84079,Wysoczany,49.43584462349,22.15148057574
84053,Mokre Małopolskie,49.44746633818,22.16752008857
84046,Morochów,49.46211754924,22.18659412878
84038,Czaszyn,49.45901911183,22.21964104168
84012,Tarnawa Dolna,49.47964148107,22.26003028011
73908,Jaworzno Szczakowa,50.2463654005,19.29713104255
280424,Głogów Małopolski Południowy,50.11348871411,21.98591172159
280420,Jasionka Lotnisko,50.11554925074,22.02219128072
280604,Kraków Przylasek,50.05199455408,20.16358512752
280605,Kraków Kościelniki,50.08784671076,20.16887604654
178406,Kraków Nowa Huta,50.09047339955,20.1288400172
79251,Kraków Lubocza,50.09053662179,20.07452913669
76232,Kęty,49.88063495026,19.2262486552
76240,Zamek Bulowicki,49.88010491298,19.26356546529
76257,Bulowice,49.8762576253,19.28983534066
76265,Andrychów Górnica,49.85851159593,19.32398407201
76273,Andrychów,49.85582652691,19.35330458126
76299,Inwałd,49.85298503152,19.3883195258
76281,Chocznia Górna,49.86270293809,19.43209418698
78212,Chocznia,49.87416563614,19.45194168657
264952,Wadowice Osiedle Podhalanin,49.88781885752,19.48217908081
78204,Wadowice,49.88519429991,19.50179830643
78287,Klecza Dolna,49.87837885752,19.53455048731
78279,Klecza Górna,49.86513468854,19.56707417013
178068,Barwałd Średni,49.87235435702,19.59824251759
78329,Barwałd Górny,49.86479619089,19.62111735074
78337,Kalwaria Zebrzydowska,49.87395282218,19.67374036622
77545,Jaworzno Ciężkowice,50.21314717687,19.33698614467
73502,Mysłowice,50.23809360671,19.14153662356
178222,Brzeszcze,49.99578461121,19.15458797872
77222,Brzeszcze Jawiszowice,49.97257761459,19.1285169071
77230,Jawiszowice Jaźnik,49.94985647968,19.11596953332
77255,Dankowice,49.93751825034,19.0830266422
76034,Kaniów,49.92643048128,19.05339896142
76000,Czechowice-Dziedzice,49.91535743587,19.00664805293
77537,Balin,50.17904375212,19.38343486241
280955,Sosnowiec Jęzor Południowy,50.22865473211,19.16541874141
76224,Kęty Podlesie,49.87813305683,19.19659527408
76190,Kozy Zagroda,49.85746421591,19.16359783475
76182,Kozy,49.84961690696,19.14232349443
76174,Krzemionki,49.84080661748,19.1151739941
76158,Bielsko-Biała Wschód,49.83467504523,19.05841470338
76109,Bielsko-Biała Główna,49.83001185919,19.04538261071
78444,Stryszawa,49.73327397748,19.52488553285
78436,Lachowice,49.72349330633,19.50374507245
76729,Lachowice Centrum,49.71224542262,19.47308931917
76711,Kurów Suski,49.70789666119,19.43375353548
76687,Hucisko,49.68865535176,19.40749670659
76679,Pewel Wielka,49.66909956562,19.37999650868
76661,Pewel Wielka Centrum,49.66064028339,19.35243662016
76653,Jeleśnia,49.6524215881,19.32072801883
76646,Pewel Mała,49.66691313534,19.27903865914
76638,Żywiec Sporysz,49.67646352008,19.2216869267
76604,Żywiec,49.67940358325,19.18569006906
81208,Dębica,50.05405500371,21.40445496407
81463,Grabiny,50.04603180918,21.33255458263
80945,Czarna Tarnowska,50.06044242284,21.24871559744
80937,Wałki,50.05076167407,21.14316440331
80929,Wola Rzędzińska,50.03523056594,21.07241453645
81356,Pustynia,50.07959763236,21.45702063771
81364,Kochanówka Pustków,50.11137344428,21.49243842834
81372,Pustków,50.14361794167,21.49634608562
81380,Dąbie koło Dębicy,50.17201728029,21.49633265959
81422,Tuszyma,50.1862954965,21.50271657079
81430,Rzemień,50.21680876719,21.50617857942
81448,Rzochów,50.23853681047,21.49634083211
280182,Mielec Południowy,50.30226560215,21.42964838862
81455,Wojsław,50.26991915487,21.46608888835
81505,Mielec,50.29259927558,21.42967386374
280295,Chorzelów Południowy,50.32379883757,21.43871622933
81547,Chorzelów,50.34305031831,21.45268320501
81554,Tuszów Narodowy,50.37225761358,21.4586001581
81562,Jaślany,50.40124435363,21.46924669444
65755,Padew,50.43428698193,21.50605568123
280257,Rzeszów Baranówka,50.06438113637,21.98907136381
280258,Rzeszów Dworzysko,50.07791931002,21.96838616788
81331,Rudna Wielka,50.08110308573,21.94151293079
81323,Świlcza,50.07808990945,21.90136690305
81281,Trzciana,50.07862826067,21.83898947596
81273,Będziemyśl,50.06658882392,21.77396494004
280259,Sędziszów Małopolski Wschodni,50.06984231432,21.7289668268
81265,Sędziszów Małopolski,50.07552395105,21.69121041341
81257,Ropczyce Witkowice,50.07733113221,21.62794485936
81232,Ropczyce,50.07849860682,21.58056670819
81240,Lubzina,50.07222629639,21.52911958999
178079,Dębica Wschodnia,50.06242168658,21.44851629366
62802,Częstochowa Stradom,50.7972075927,19.10762895397
71001,Tarnowskie Góry,50.44606860005,18.86443201317
71027,Miasteczko Śląskie,50.49738970819,18.90021972857
72108,Kalety,50.56600339159,18.88847561442
72157,Strzebiń,50.6181627399,18.89992502369
72066,Boronów,50.66577025392,18.90108800169
63305,Herby Stare,50.74724082965,18.88073321693
62844,Blachownia,50.77389639404,18.96960399627
62836,Częstochowa Gnaszyn,50.79166431561,19.02952870617
71407,Lubliniec,50.67289146587,18.69052512305
71571,Kochanowice,50.69944205607,18.7484639828
71589,Lisów,50.72088418862,18.7912200086
72058,Chorzew Siemkowice,51.20998201257,18.94122361064
280951,Biała Szlachecka,51.1753984986,19.02310374222
63180,Wistka,51.15511879368,19.08476755739
63222,Dubidze Kolonia,51.11671174851,19.1293591775
63172,Dubidze,51.10311839018,19.14262807757
280954,Nowa Brzeźnica,51.07234023627,19.14658038142
63156,Ważne Młyny,51.03814229793,19.1467237258
280952,Stary Broniszew,50.9831273363,19.16075542557
280953,Cykarzew Północny,50.97638581538,19.16174947679
63149,Stary Cykarzew,50.95240895156,19.16945989228
63131,Mykanów,50.92561356445,19.17919836919
63123,Rząsawa,50.88394407952,19.17680712001
71803,Herby Nowe,50.74755408462,18.85441176733
45674,Wieluń Dąbrowa,51.23949550475,18.55060589273
45682,Wieluń,51.22344251522,18.5826561733
45690,Pątnów Wieluński,51.16007763394,18.63360955048
71928,Dzietrzniki,51.11723448734,18.61496412831
71886,Janinów,51.05593374806,18.60558758232
71878,Jaworzno koło Wielunia,51.01460021599,18.65325433491
71860,Krzepice,50.96915118418,18.69702274155
71852,Panki,50.89668982705,18.74847008533
71845,Kuleje,50.82882329453,18.79255976217
77040,Wisła Głębce,49.62172006961,18.87606200993
77032,Wisła Kopydło,49.63485155524,18.86985810549
77024,Wisła Dziechcinka,49.64738210113,18.86546046627
76992,Wisła Uzdrowisko,49.65836722274,18.85485112131
77057,Ustroń Polana,49.69672804322,18.83002727956
264959,Ustroń Brzegi,49.70970550335,18.82127271164
76968,Ustroń Zdrój,49.72061232694,18.81663500726
76950,Ustroń,49.7280059706,18.80220434589
76901,Goleszów,49.74686280831,18.74919354379
75788,Skoczów,49.79354529741,18.79014014661
75796,Chybie,49.89281665303,18.80966662288
75879,Strumień,49.91141491041,18.75329137169
280237,Pawłowice Śląskie Centrum,49.96381668147,18.72492014618
69294,Warszowice,49.98983928106,18.7154479101
69203,Żory,50.05308148321,18.70202421069
68205,Rybnik,50.08906167788,18.54784547746
68833,Nędza Wieś,50.16469498171,18.31223923943
68882,Kuźnia Raciborska,50.20079191749,18.29856663931
67009,Kędzierzyn Koźle,50.34505220673,18.20473906867
67066,Zdzieszowice,50.42184403002,18.12642853642
61903,Gogolin,50.49288100669,18.01886108457
60608,Opole Główne,50.66154613649,17.92793674231
178452,Opole Zachodnie,50.66084320994,17.89841794076
235669,Lewin Brzeski,50.75811696643,17.61540146435
62109,Brzeg,50.85283242929,17.47135932797
71456,Pawonków,50.68074601733,18.56717910324
71464,Pludry,50.66473211316,18.46947517562
61507,Fosowskie,50.66046766861,18.359201098
61580,Krasiejów,50.66835939243,18.24966764526
61572,Ozimek,50.67000478647,18.20859612165
60848,Chrząstowice,50.66054326076,18.07461033552
68700,Racibórz,50.0904006231,18.2264190835
68791,Racibórz Markowice,50.11317739598,18.27009271184
68783,Nędza,50.1559241824,18.29148241175
67165,Dziergowice,50.24183634677,18.30082321531
67140,Bierawa,50.29373674904,18.25673921908
67157,Kędzierzyn Koźle Azoty,50.31070950598,18.23959420012
67116,Raszowa,50.3883409407,18.16062982845
67124,Jasiona,50.45919080367,18.07555377913
61937,Górażdże,50.52831801701,18.00359201007
62042,Przywory Opolskie,50.58185052921,17.98902209684
62034,Opole Grotowice,50.60951785315,17.97613648713
62000,Opole Groszowice,50.63620570827,17.95514667453
60699,Chróścina Opolska,50.66984157855,17.8181446583
60673,Dąbrowa Niemodlińska,50.69162824438,17.75378324366
62141,Przecza,50.73297671335,17.66777849108
62158,Łosiów,50.78861889107,17.55169472444
58289,Lipki,50.89827481156,17.37250313787
58271,Oława,50.9309804404,17.29699599133
58263,Lizawice,50.97228586956,17.2143741193
58255,Zębice Wrocławskie,51.00662990576,17.16207527355
58230,Święta Katarzyna,51.02973759155,17.12302225946
178662,Wrocław Brochów,51.06436746475,17.08460021052
60103,Wrocław Główny,51.09805619991,17.03685973882
69708,Gliwice,50.3010996285,18.67722702764
70102,Gliwice Łabędy,50.34006837132,18.62255373449
70136,Gliwice Kuźnica,50.35693581597,18.62149420743
70201,Pyskowice,50.38401739141,18.61866437566
70243,Paczyna,50.41206902525,18.57223676082
70250,Toszek,50.44161264137,18.51373071497
70268,Ligota Toszecka,50.45631232237,18.46392997122
70276,Kotulin,50.46882902796,18.43588093975
61739,Błotnica Strzelecka,50.48437797275,18.40289627585
61705,Strzelce Opolskie,50.51671187049,18.3065966348
61747,Szymiszów,50.52829151179,18.22426469067
62075,Otmice,50.5511228571,18.12434582058
62059,Tarnów Opolski,50.57196200653,18.07797802938
67272,Kędzierzyn Koźle Przystanek,50.35059151867,18.1544947289
67264,Kędzierzyn Koźle Zachodnie,50.34661212699,18.131367692
67454,Pokrzywnica,50.34389303954,18.07954963085
67447,Twardawa,50.34712664357,17.99897632432
67462,Głogówek,50.34760123367,17.87576932675
67488,Racławice Śląskie,50.31221646627,17.76122537242
56945,Dytmarów,50.32984838475,17.67655198446
56903,Prudnik,50.32914061399,17.57744390754
56937,Szybowice,50.34458441256,17.48121067139
56655,Nowy Las,50.36205434187,17.41389350559
56622,Nowy Świętów,50.37781472892,17.36968012452
56606,Nysa,50.47777011314,17.34184774757
56671,Goświnowice,50.47855455417,17.2572320559
56689,Wójcice,50.4684775438,17.22039926861
56697,Otmuchów,50.47412628018,17.15278337229
56705,Otmuchów Jezioro,50.48153579124,17.10945235467
56713,Paczków,50.47840993325,17.01118203309
56473,Doboszowice,50.50740994641,16.94265344605
56408,Kamieniec Ząbkowicki,50.53616772711,16.89894453563
56523,Bardo Śląskie,50.50484068595,16.73409309296
57307,Kłodzko Główne,50.45087250511,16.657161841
57463,Kłodzko Miasto,50.43543140434,16.65855831741
71431,Kochcice-Glinica,50.71393866495,18.65755051106
71522,Ciasna,50.75642735481,18.62938101125
71530,Sieraków Śląski,50.79887613459,18.5935047242
71548,Sowczyce,50.84596070931,18.50151836336
71555,Olesno Śląskie,50.88215511747,18.42471599042
71563,Stare Olesno,50.91540615946,18.3752050969
61366,Bąków,50.95616276725,18.31454693735
61200,Kluczbork,50.97085253899,18.20118218095
61267,Smardy,50.99219446223,18.14458065417
61283,Wołczyn,51.01346488456,18.04720270711
61291,Wierzbica Górna,51.02223030092,17.97576283504
62356,Domaszowice,51.04842538686,17.88399988719
62364,Gręboszów,51.06539940177,17.80015832275
62307,Namysłów,51.07437411208,17.71706755939
62398,Wilków Namysłowski,51.09424455376,17.65837445377
59584,Bierutów,51.12840991926,17.54622076298
59626,Solniki Wielkie,51.15415373566,17.49346191798
59501,Oleśnica,51.20049059302,17.38696191447
59345,Borowa Oleśnicka,51.1841298963,17.27630059326
59337,Długołęka,51.17841510776,17.19422568753
279409,Mirków,51.16527730742,17.16500043333
59246,Wrocław Psie Pole,51.15042371518,17.11842610185
59204,Wrocław Sołtysowice,51.14253949084,17.08375387863
59105,Wrocław Nadodrze,51.1256883954,17.0334276238
264901,Wrocław Szczepin,51.12283904723,17.01392233104
58651,Wrocław Mikołajów,51.11642853085,16.99842626911
56820,Myśliczyn,50.52572615342,17.32867825083
56838,Pakosławice,50.54523330393,17.35332409854
56846,Skoroszyce,50.59400743701,17.37514250735
56853,Chróścina Nyska,50.61595036732,17.37801953667
62190,Stary Grodków,50.65019007627,17.37770400999
62182,Grodków Śląski,50.69753598606,17.37631480363
62174,Lipowa Śląska,50.73702151319,17.42691453354
62232,Czeska Wieś,50.75785579945,17.45920000744
62166,Olszanka,50.79463738298,17.47741412771
6031,Gdynia Chylonia,54.54583818736,18.46335644379
5900,Gdynia Główna,54.52128410189,18.52806359468
5934,Gdynia Orłowo,54.47721712285,18.54827770028
5942,Sopot,54.43995694985,18.56235946849
7583,Gdańsk Oliwa,54.40984425779,18.5718739534
7534,Gdańsk Wrzeszcz,54.381951326,18.60508491696
7500,Gdańsk Główny,54.35643747799,18.64413141132
7252,Gdańsk Orunia,54.32423435963,18.63447406578
7302,Pruszcz Gdański,54.25745421232,18.64679795947
7088,Pszczółki,54.17445167268,18.70197285829
7112,Tczew,54.09745621809,18.78960368872
7195,Szymankowo,54.07290283086,18.9267067007
7872,Malbork,54.03621384954,19.04257891417
23044,Mikołajki Pomorskie,53.84975995884,19.15838873939
22905,Prabuty,53.75781755726,19.21039490068
22939,Susz,53.71120190409,19.32907854879
22954,Redaki,53.67107421044,19.40818047442
22962,Ząbrowo,53.63723902211,19.46088081705
21816,Iława Miasto,53.59578157385,19.54828696662
21808,Iława Główna,53.58231351954,19.57368118092
21824,Rudzienice Suskie,53.63816621839,19.66818546718
21832,Pikus,53.65633047277,19.73778270089
21840,Samborowo,53.67184512434,19.82036058529
22004,Ostróda,53.69967504512,19.95142715682
22079,Stare Jabłonki,53.69135344775,20.09366151963
22095,Biesal,53.72026146591,20.19367253802
9621,Unieszewo,53.72905324102,20.29986287434
9233,Olsztyn Zachodni,53.77834031204,20.46785566044
9613,Naterki,53.74619495751,20.37641645449
8078,Mleczewo,53.91377447595,19.12291775512
18432,Rynkowo Wiadukt,53.15177134005,18.00540652287
16501,Maksymilianowo,53.2140410735,18.02921568594
16691,Kotomierz,53.28399483874,18.12035682666
17087,Pruszcz Pomorski,53.33391535213,18.19821409961
17079,Parlin,53.37073988322,18.26951898085
16907,Terespol Pomorski,53.40965319222,18.35191214257
17202,Laskowice Pomorskie,53.49127459736,18.45632827308
17210,Warlubie,53.58839480747,18.62266283095
17228,Twarda Góra,53.68264240826,18.67160417934
8474,Smętowo,53.74783147334,18.68602577636
8482,Majewo,53.80174259215,18.67959012557
8433,Morzeszczyn,53.83684782375,18.68632394131
8425,Kulice Tczewskie,53.87941418536,18.69051950493
8409,Pelplin,53.9272631663,18.70796312623
8532,Subkowy,53.98613063123,18.75359893842
261229,Subkowy Centrum,54.00254229452,18.76073815344
8540,Czarlin,54.04832818431,18.76694383074
7245,Gdańsk Lipce,54.30144947275,18.63593132361
7328,Cieplewo,54.23354105192,18.64759456091
7062,Różyny,54.21147655423,18.66217058127
7070,Skowarcz,54.18506858,18.68240532942
7096,Miłobądz,54.14713663125,18.74047221138
7161,Lisewo,54.09292759686,18.82563445213
7260,Stogi Malborskie,54.06382934184,18.96963584212
7864,Malbork Kałdowo,54.04714903962,19.02441798357
7898,Królewo Malborskie,54.03720602491,19.11705643181
7880,Stare Pole,54.05337850349,19.20553605099
7914,Fiszewo,54.06756825895,19.24884539378
8227,Gronowo Elbląskie,54.08961189313,19.30508801255
8151,Elbląg,54.15089738607,19.41618997433
15602,Chojnice,53.68889583547,17.57791578233
8953,Krojanty,53.72994949584,17.65530137453
8946,Rytel,53.74828611886,17.72538541995
8938,Rytel Wieś,53.76054431841,17.77287272404
8920,Gutowiec,53.77750324551,17.86076836469
8904,Czersk,53.80072566028,17.97056937855
8979,Łąg,53.83092531709,18.06266191197
8961,Czarna Woda,53.85128125876,18.10877386083
8987,Kamienna Karczma,53.87717134273,18.16267659385
8995,Kaliska,53.90293194235,18.21579803925
8698,Bytonia,53.9318146099,18.26741409053
8680,Zblewo,53.94269523955,18.30526527256
8672,Pinczyn,53.96226246928,18.34841209635
8664,Piesienice,53.96502343135,18.3960674829
8607,Starogard Gdański,53.97727723921,18.52621946272
8714,Szpęgawsk,54.00726342186,18.61038168045
8706,Swarożyn,54.0381778691,18.65635040213
8722,Rokitki Tczewskie,54.08085864765,18.73686943987
263440,Olsztyn Śródmieście,53.78250845637,20.48149533862
265130,Olsztyn Jezioro Ukiel,53.78388766436,20.44960141182
178137,Olsztyn Likusy,53.78965818794,20.44487273728
265053,Olsztyn Redykajny,53.79653829262,20.43517649174
9514,Olsztyn Gutkowo,53.80886447858,20.40235029057
9522,Jonkowo,53.81581592116,20.29603920254
9530,Godki,53.81760176381,20.25025237304
9548,Wołowno,53.81727866339,20.19824270846
9555,Gamerki Wielkie,53.84500810159,20.1383468769
11171,Kozia Góra,53.85328030983,20.08072941543
11155,Żabi Róg,53.876204023,20.01797652531
11163,Morąg Kolonia,53.90990791133,19.94578067853
10900,Morąg,53.9190426325,19.92265326678
11148,Dobrocin,53.90999951922,19.82915728892
10983,Małdyty,53.9212250891,19.73545069663
10918,Zielonka Pasłęcka,53.98089366426,19.7010313817
10926,Nowa Wieś Cierpkie,54.0244653024,19.65636163348
10934,Pasłęk,54.05549901392,19.65647127013
10942,Bogaczewo,54.10014439564,19.57311141869
7955,Komorowo Żuławskie,54.10479982221,19.50999297852
18705,Inowrocław,52.80497139096,18.24377584874
19034,Jaksice,52.85601213392,18.19931331535
19042,Złotniki Kujawskie,52.90345301174,18.14756393376
19059,Nowa Wieś Wielka,52.96857172578,18.09670252468
19075,Chmielniki Bydgoskie,53.00161577503,18.05013670189
18572,Brzoza Bydgoska,53.02744122739,18.02037193442
18564,Trzciniec,53.08560782546,17.94818045332
258924,Bydgoszcz Błonie,53.11778834395,17.95152335582
18770,Więcławice,52.84113111085,18.30442923187
18788,Wierzchosławice,52.86819151502,18.35787899427
18796,Gniewkowo,52.88804590716,18.40383843265
18812,Suchatówka,52.91033232961,18.47993400346
6098,Rumia,54.56902057926,18.38674911037
6106,Reda,54.59490554336,18.35328737452
6882,Reda Rekowo,54.63201020637,18.36371983069
6890,Mrzezino,54.65290241309,18.41296207606
6874,Żelistrzewo,54.67418805536,18.41601681349
6700,Puck,54.7150832613,18.40855335582
6726,Swarzewo,54.75250331611,18.38257313929
6742,Władysławowo,54.79372147682,18.40183055687
19091,Janikowo,52.74898255909,18.11618383708
19125,Kołodziejewo,52.71297787963,18.03507027071
32003,Mogilno,52.65857188473,17.94605076941
18515,Bydgoszcz Zachód,53.13588000919,17.94945872171
18523,Bydgoszcz Osowa Góra,53.14816837894,17.91214337819
18531,Pawłówek,53.15220031319,17.85637761644
18499,Zielonczyn,53.15100116861,17.80741598266
18549,Ślesin,53.15608625702,17.70064903338
18200,Nakło nad Notecią,53.142570647,17.60715211531
18242,Anieliny,53.1290913408,17.48641663311
18234,Samostrzel,53.12775103674,17.43407235498
18259,Jadwiżyn,53.12390562935,17.37193483541
14514,Wyrzysk Osiek,53.11906715956,17.29337381655
6817,Władysławowo Port,54.79347360918,18.41796492394
6734,Chałupy,54.76178380971,18.50200384789
6767,Kuźnica (Hel),54.73645918481,18.57570659126
6783,Jastarnia Wczasy,54.70829917566,18.65439807606
6775,Jastarnia,54.7017925984,18.67641617791
6759,Jurata,54.68544926722,18.7125494871
6791,Hel,54.61110813761,18.80093927487
5447,Luzino,54.5669205778,18.10265072375
6593,Gościcino Wejherowskie,54.60516587493,18.16116209507
6304,Wejherowo,54.60582937299,18.22962210729
20909,Jabłonowo Pomorskie,53.39343883028,19.16297520632
20933,Książki,53.32988662059,19.06743292583
20743,Wąbrzeźno,53.26501488054,18.98184118506
20727,Zieleń,53.21617170908,18.93055668537
20719,Kowalewo Pomorskie,53.16390015664,18.86912122812
20768,Rychnowo Wielkie,53.14251923905,18.81447893464
20776,Kamionki Jezioro,53.12978058548,18.77983152395
20784,Turzno,53.10076888342,18.73652242151
20065,Papowo Toruńskie,53.06806413795,18.69328479873
32045,Wydartowo,52.61155682779,17.90430715143
32078,Trzemeszno,52.56990511104,17.81799042266
32060,Jankowo Dolne,52.53882532998,17.71952715989
30809,Gniezno,52.52968955788,17.60357013519
30932,Pierzyska,52.50528479059,17.4793755541
30940,Fałkowo,52.49853092359,17.42452756686
30957,Lednogóra,52.49090006787,17.36293885312
30965,Pobiedziska,52.47931618166,17.2779332498
30981,Pobiedziska Letnisko,52.47428301863,17.23967226492
30999,Promno,52.47164939153,17.21448467858
30973,Biskupice Wielkopolskie,52.46684217519,17.1687384091
31021,Kobylnica,52.44573432348,17.07913510483
31039,Ligowiec,52.43473500505,17.03530532904
29801,Poznań Wschód,52.41845093624,16.97216823949
29892,Poznań Garbary,52.41634597356,16.93745565332
14407,Piła Główna,53.14309783834,16.74507578666
16402,Jastrowie,53.40813914877,16.79827740168
280181,Jastrowie Miasto,53.42442415494,16.81117398262
3236,Okonek,53.52026430861,16.8306187619
3004,Szczecinek,53.69353652129,16.70497103387
2998,Szczecinek Chyże,53.7187404614,16.695870509
280150,Szczecinek Bugno,53.72384129995,16.68282557672
3988,Grzmiąca,53.83252830598,16.41947706134
3962,Tychowo,53.92145924928,16.23497379961
3905,Białogard,54.00994582961,15.97770929606
4028,Karlino,54.04519141621,15.88331332492
4101,Kołobrzeg,54.18220163355,15.57077765709
5439,Strzebielino Morskie,54.56289438206,18.02870389364
5421,Bożepole Wielkie,54.56891094446,17.96737881518
5413,Godętowo,54.58190007128,17.86306380651
254531,Lębork Mosty,54.55021992997,17.7929913944
5256,Lębork,54.53362086617,17.75043008566
5371,Leśnice,54.51410085154,17.66909292394
5363,Pogorzelice,54.50391629675,17.64170456085
4937,Potęgowo,54.48520779033,17.48563988095
4929,Głuszyno Pomorskie,54.48989362267,17.41784218651
4911,Strzyżyno Słupskie,54.49104456036,17.37303077706
4895,Damnica,54.49802269437,17.26980003173
4887,Jezierzyce Słupskie,54.50430238226,17.12140915633
4705,Słupsk,54.46771196624,17.01648113966
15586,Brzeźno Człuchowskie,53.67086707644,17.48184483073
15594,Człuchów,53.65763356828,17.37112539991
3186,Biskupnica,53.65507859635,17.21155373612
3178,Bińcze,53.66011100599,17.12897648689
3160,Domisław,53.66799334249,17.03262077771
3137,Czarne,53.68000194859,16.93842057707
3152,Żółtnica,53.69527582444,16.81214325734
3145,Czarnobór,53.69975121328,16.76772324553
14498,Krostkowo,53.10786880699,17.20808590025
14480,Białośliwie,53.09782155203,17.12461062121
14472,Miasteczko Krajeńskie,53.09268337563,17.01871771761
14464,Kaczory,53.10545280684,16.88164958046
280149,Piła Fabryczna,53.13912510437,16.77200585335
14811,Szydłowo Krajeńskie,53.16681558189,16.60684212618
14779,Dobino Wałeckie,53.22685116664,16.52479028217
14704,Wałcz,53.27510473715,16.48431759469
14738,Wałcz Raduń,53.27686608822,16.45771163632
14746,Strączno,53.24360441938,16.36149920196
14753,Rutwica,53.22935867133,16.28324906618
14761,Tuczno Krajeńskie,53.21895710594,16.17519857003
15065,Jeziorki Wałeckie,53.22565816925,16.1072012803
15057,Krępa Krajeńska,53.22769994741,16.05794597165
15032,Biały Zdrój Południowy,53.25652117356,15.95444365389
15008,Kalisz Pomorski,53.27774129392,15.88089584789
15149,Cybowo,53.29324570585,15.81649924634
15131,Prostynia,53.30522135217,15.77385187542
15156,Żółwino,53.28898635189,15.69051666107
2477,Recz Pomorski,53.27062872769,15.56137551513
2469,Sokoliniec,53.2940140269,15.50556047949
2451,Ognica,53.31605057572,15.45341551872
2428,Tarnowo Pomorskie,53.30628810479,15.36666556906
2444,Sulino,53.31803723266,15.3152866603
2436,Barzkowice,53.32700984235,15.26425065989
2485,Pęzino,53.33549265711,15.19549517214
2212,Ulikowo,53.34854535165,15.11740972817
2204,Stargard,53.33942629473,15.03140769201
2253,Reptowo,53.37248552639,14.86277230803
1214,Szczecin Zdunowo,53.38321816404,14.76353921303
1107,Szczecin Dąbie,53.39123361294,14.66926219396
1123,Szczecin Zdroje,53.37882988237,14.63695399909
273,Szczecin Główny,53.41848158335,14.54975301866
15883,Moszczenica Pomorska,53.6423905808,17.48885638013
15875,Wierzchowo Człuchowskie,53.61804777683,17.44762628532
15891,Bukowo Człuchowskie,53.57356636298,17.37246948158
15529,Lipka Krajeńska,53.49734059016,17.25740911939
15511,Zakrzewo Złotowskie,53.41649174474,17.14087038914
15354,Złotów,53.35922537361,17.05310625693
15537,Krajenka,53.28905096242,16.99163627891
15545,Dolnik,53.25559721374,16.92982306457
15552,Skórka,53.21893814639,16.8706869151
15560,Piła Podlasie,53.16294643666,16.77709712655
14522,Stobno,53.10883813174,16.62536361632
14530,Biała Pilska,53.06117885107,16.51674606778
14548,Trzcianka,53.03334950777,16.46566994802
29249,Siedlisko Czarnkowskie,52.98362926186,16.39855716905
29231,Biernatowo,52.95677790228,16.34211133265
29223,Wieleń,52.90747049724,16.18013012138
29108,Krzyż,52.8772801966,16.01801163281
61002,Opole Wschodnie,50.67440503919,17.93445335061
61051,Opole Czarnowąsy,50.71622625317,17.90374316659
61069,Opole Borki,50.74291266351,17.88176463265
61077,Dobrzeń Wielki,50.77165282397,17.85958844323
61085,Chróścice,50.79302922443,17.8164027341
61127,Popielów,50.82959998677,17.76238081742
61135,Karłowice,50.87987653718,17.69923555607
61143,Tarnowiec Brzeski,50.91368863139,17.65244849551
61150,Mąkoszyce,50.93971671083,17.63097288754
61176,Rogalice,50.96353524095,17.59773623101
216137,Borucice,50.98195411375,17.55672155093
58388,Biskupice Oławskie,50.99390383644,17.51593059407
58362,Minkowice Oławskie,51.01184797892,17.45692677233
58354,Kopalina,51.02103414753,17.40440791023
58347,Jelcz Laskowice,51.03693431598,17.34565742572
58172,Jelcz Miłoszyce,51.04453531994,17.30584350733
58321,Czernica Wrocławska,51.04970539431,17.23621493158
58313,Zakrzów Kotowice,51.03579217663,17.21040266476
58297,Siechnice,51.03832785364,17.14266513448
263500,Iwiny,51.05461521533,17.06879875463
60145,Smardzów Wrocławski,51.03057509686,17.06612047887
60152,Żórawina,50.98334043406,17.04956112071
60178,Węgry,50.92572950935,17.03282333342
60160,Boreczek,50.87883230506,17.02458730635
59840,Warkocz,50.82902408157,17.04651395445
59808,Strzelin,50.7846554663,17.06033877261
60855,Suchy Bór Opolski,50.65729602468,18.03675976894
61564,Dębska Kuźnia,50.66434221432,18.11257339642
61598,Staniszcze Małe,50.66434797253,18.31880656946
61531,Kolonowskie,50.65195315967,18.38792349291
61549,Zawadzkie,50.6089656934,18.47355345214
60731,Opole Chmielowice,50.64468945683,17.86674359076
60723,Komprachcice,50.63159756006,17.82121178916
263625,Szydłów Centrum,50.60530611038,17.7182873452
60749,Szydłów,50.60605539503,17.70506638762
56762,Tułowice,50.59816092818,17.64937427176
262506,Goszczowice,50.57280767147,17.62205001258
56754,Sowin,50.55548334882,17.60900716797
56747,Łambinowice,50.53755792316,17.56507700693
56739,Budziszowice,50.52268091284,17.53315848043
56721,Jasienica Dolna,50.50406187681,17.50381088095
56770,Mańkowice,50.48907648362,17.47659408984
56788,Kubice,50.47568193044,17.44256954683
56812,Wyszków Śląski,50.46648500944,17.39099602212
262505,Nysa Wschodnia,50.46590751209,17.35834975463
60863,Opole Gosławice,50.67426591474,17.98815667274
60871,Kotórz Mały,50.72897600058,18.03607585285
60889,Osowiec Przystanek,50.7528768086,18.04344689642
60921,Osowiec Śląski,50.77397777517,18.04509758681
60939,Jełowa,50.7940634681,18.04663921976
61440,Kały,50.82729649857,18.08064487962
61432,Laskowice Oleskie,50.85630736577,18.09512474603
61374,Tuły,50.8746476897,18.10008235582
61382,Bukowo,50.89649766931,18.10705464418
61424,Borkowice,50.9321349139,18.15598759126
61325,Krzywizna,51.02630444554,18.20179556952
61333,Biskupice koło Kluczborka,51.07115816424,18.21031401637
61341,Byczyna Kluczborska,51.11371109591,18.1998799207
61358,Kostów,51.16553687572,18.14582632974
45732,Łęka Opatowska,51.21732793425,18.09123090768
45724,Słupia,51.25195314349,18.04128101279
45401,Kępno,51.29197634618,18.00140641668
45468,Domanin,51.34434324571,17.99534419251
45476,Ostrzeszów,51.4296015581,17.94054666434
45526,Niedźwiedź Wielkopolski,51.48588650324,17.88376957464
46011,Antonin,51.51304463219,17.86069274409
46003,Przygodzice,51.57034788914,17.82981337737
45989,Janków Przygodzki,51.60928525939,17.80961213409
44305,Rawicz,51.60877741913,16.83979934136
44453,Korzeńsko,51.54445053198,16.87232823677
44438,Garbce,51.51402155535,16.88945971221
44420,Żmigród,51.47485191109,16.90180355369
58826,Skokowa,51.38707135472,16.84895878597
58792,Osola,51.33821063714,16.86568079014
58784,Oborniki Śląskie,51.29940096999,16.90740536845
58776,Pęgów,51.24714604492,16.9271488663
58768,Szewce,51.21614153957,16.95410552475
58743,Wrocław Świniary,51.19779322159,16.97002293553
58719,Wrocław Osobowice,51.16665535036,16.99698101521
258130,Wrocław Różanka,51.13804682313,17.00373252646
58644,Wrocław Popowice,51.12710048522,17.0013527968
57133,Głuchołazy Miasto,50.31681029838,17.38990555952
57109,Głuchołazy,50.3303069648,17.39444876686
56184,Szklarska Poręba Górna,50.83266886434,15.51872596693
56176,Szklarska Poręba Średnia,50.83845500292,15.54002090289
56168,Szklarska Poręba Dolna,50.8483479237,15.55694243247
56143,Piechowice,50.85170662987,15.59147073651
56127,Jelenia Góra Sobieszów,50.85187384278,15.64545522841
56093,Jelenia Góra Cieplice,50.87010481896,15.68874476231
261290,Jelenia Góra Zabobrze,50.91033884333,15.7428272295
55806,Jelenia Góra,50.90260149015,15.7559269735
55665,Janowice Wielkie,50.87851661199,15.9187708272
55608,Marciszów,50.85132642052,16.00783028651
55632,Sędzisław,50.81340553575,16.06981221998
55228,Boguszów Gorce,50.75024909981,16.20211694907
55103,Wałbrzych Główny,50.74332995856,16.28095583203
262834,Wałbrzych Centrum,50.77345966476,16.26989167061
54551,Wałbrzych Miasto,50.786359535,16.28527885302
54544,Wałbrzych Szczawienko,50.81652867733,16.30275155081
54528,Świebodzice,50.86019406371,16.33289737096
54403,Jaworzyna Śląska,50.91252237851,16.42891994556
54619,Żarów,50.93952222005,16.49294780756
58933,Kąty Wrocławskie,51.03811289425,16.75035429388
254532,Wrocław Grabiszyn,51.09659785733,16.97412514219
44511,Bojanowo,51.70027866021,16.74462750921
42606,Leszno,51.84647952492,16.56557230111
42671,Stare Bojanowo,51.99652520111,16.58508213222
43406,Kościan,52.07932767218,16.64246164153
43448,Czempiń,52.13897413456,16.75235817165
30452,Mosina,52.23983523641,16.85126368023
30403,Luboń koło Poznania,52.34442282247,16.89298218317
30585,Poznań Dębiec,52.36833010832,16.90113168992
58941,Mietków,50.98512787761,16.65596284652
58883,Smolec,51.07153175467,16.8816556227
42200,Głogów,51.66967512769,16.07957260999
42465,Głogów Huta,51.67537658522,15.9923153504
42457,Głogów Wróblin,51.6865758013,15.95455879242
42473,Brzeg Głogowski,51.6909839441,15.9183685723
42481,Czerna,51.70216198721,15.88493439219
42127,Bytom Odrzański,51.72626162843,15.82206209382
42002,Nowa Sól,51.79912167571,15.70874382983
27946,Niedoradz,51.86555640721,15.66430319408
258457,Zielona Góra Nowy Kisielin,51.91543020972,15.62704843915
27920,Zielona Góra Stary Kisielin,51.93666841144,15.58988838223
27805,Zielona Góra Główna,51.94743950846,15.51348489897
58867,Wrocław Muchobór,51.11109675051,16.97484657006
59055,Wrocław Kuźniki,51.12775790986,16.95261708723
241966,Wrocław Stadion,51.13716008979,16.94045936931
59071,Wrocław Pracze,51.1698621936,16.90330557433
60285,Brzezinka Średzka,51.2196707896,16.83691953756
60327,Czerna Mała,51.22988207626,16.80383715811
60392,Księginice,51.24225175398,16.76378122454
60269,Brzeg Dolny,51.26671570629,16.7255035535
60368,Łososiowice,51.29735770006,16.67476687386
60335,Wołów,51.33371086352,16.63311674999
60574,Orzeszków,51.39388268918,16.50825902809
60566,Małowice Wołowskie,51.40428444351,16.47194846071
60400,Ścinawa,51.4091782138,16.42173497635
60483,Chełmek Wołowski,51.45626176136,16.35918896561
60459,Rudna Miasto,51.506092024,16.27013902405
60442,Rudna Gwizdanów,51.52918748477,16.28093476117
42440,Grębocice,51.59331318454,16.1851474122
42432,Krzepów,51.64493922763,16.13341680657
55848,Stara Kamienica,50.91398416795,15.56597252017
52365,Rębiszów,50.9481936409,15.45607144544
52357,Gryfów Śląski,51.03398636634,15.42896210611
52589,Olszyna Lubańska,51.06973774172,15.38064822223
52506,Lubań Śląski,51.11134944727,15.29352663875
51805,Węgliniec,51.29011852119,15.22298410229
51821,Stary Węgliniec,51.30766235992,15.19515292196
52027,Ruszów,51.40091763721,15.17661151954
41673,Iłowa Żagańska,51.50204191731,15.18854501138
41640,Konin Żagański,51.54597554799,15.19147801522
41632,Żary Kunice,51.59938232924,15.16573009676
41558,Żary,51.63432560927,15.13845108028
41202,Żagań,51.60411323724,15.31502653134
41368,Bieniów,51.71607447482,15.17916371753
27912,Nowogród Osiedle,51.79507580889,15.22561513359
27896,Nowogród Bobrzański,51.8120305415,15.24438886375
52035,Jagodzin,51.35583472638,15.17034781434
52043,Okrąglica,51.4372099889,15.18169645098
41657,Jankowa Żagańska,51.56700693936,15.18076585839
41582,Lubanice,51.69190047951,15.12033137169
27888,Bogaczów,51.84386097801,15.26784444313
27870,Koźla Kożuchowska,51.87239681351,15.31882530556
27862,Letnica,51.8897548116,15.31922311905
27839,Buchałów,51.91690279579,15.36265529563
280487,Żary Muzyków,51.6418436493,15.11655449331
178226,Słone,51.92948446572,15.3923338598
51862,Zgorzelec Miasto,51.15461801471,15.0201610086
51961,Jędrzychowice,51.17392212317,15.01775518651
51953,Lasów,51.22513331438,15.03506589815
51946,Pieńsk,51.24537151725,15.04706640608
42499,Głogówko,51.73524143918,16.09566982234
42937,Stare Drzewce,51.77665826586,16.19567380817
42887,Wschowa,51.79397990707,16.31674040741
42879,Lasocice,51.81589535332,16.48598373653
59576,Oleśnica Rataje,51.21584759927,17.36443823223
178887,Dąbrowa Oleśnicka,51.23003094297,17.3688819079
59550,Dobroszyce,51.27060176146,17.363883351
59543,Grabowno Wielkie,51.34341205464,17.40344358077
59691,Twardogóra,51.36031625873,17.46855667725
46136,Bukowina Sycowska,51.38812635243,17.58315323677
46128,Międzybórz Sycowski,51.40103624019,17.65351483069
46094,Pawłów Wielkopolski,51.42180331928,17.65475072024
46086,Sośnie Ostrowskie,51.47128851377,17.63944954233
46078,Granowiec,51.51178692856,17.64524125397
46060,Garki,51.54013724004,17.64865144048
46052,Odolanów,51.57471075171,17.66780762831
46045,Tarchały Wielkie,51.58706466566,17.70158668221
46037,Topola Osiedle,51.6129046918,17.7620144785
55954,Wojanów,50.88471848075,15.82152012892
55962,Trzcińsko,50.88320692348,15.87205301066
55673,Ciechanowice,50.86541968116,15.97980999
55657,Witków Śląski,50.79387796576,16.12747896826
55269,Boguszów Gorce Zachód,50.76236385675,16.16725664362
55251,Boguszów Gorce Wschód,50.74806338204,16.22222723811
54627,Imbramowice,50.96345716356,16.5788876589
58925,Sadowice Wrocławskie,51.05604958073,16.82481408829
263501,Mokronos Górny,51.07884790164,16.90864886872
58875,Wrocław Zachodni,51.08997225511,16.94957881898
42861,Kaczkowo,51.74357482438,16.6796196415
42853,Rydzyna,51.77067231425,16.64707461847
42648,Lipno Nowe,51.91976638439,16.57073974442
42655,Górka Duchowna,51.9542482321,16.57692342314
42689,Przysieka Stara,52.03636850708,16.60440346091
43430,Oborzyska Stare,52.11106999773,16.70250602059
30478,Iłowiec,52.18366488811,16.79936968034
30460,Drużyna Poznańska,52.21034790757,16.82392396386
30429,Puszczykówko,52.27293326149,16.863760241
30411,Puszczykowo,52.29568824412,16.87114601189
26104,Zbąszynek,52.24319855199,15.81866168851
28134,Szczaniec,52.26438119906,15.69424094912
28142,Kupienino,52.25740022755,15.61404059319
28100,Świebodzin,52.24530528201,15.54018141065
28159,Wilkowo Świebodzińskie,52.25635571548,15.46921005526
28167,Mostki,52.26883951642,15.39598401668
28183,Toporów,52.2602705031,15.2616373635
28233,Drzewce,52.26945013435,15.16166589412
25981,Torzym,52.31242204385,15.05958541691
25973,Boczów,52.32675015592,14.94622819615
27938,Zielona Góra Przylep,51.97768859717,15.43871049736
27300,Sulechów,52.09276931251,15.61872001401
27334,Łęgowo Sulechowskie,52.13246525794,15.67489987212
26161,Babimost,52.16850193898,15.81518693923
26146,Zbąszyń,52.25945349529,15.89568303348
26187,Chrosnica,52.28137222425,15.99168317144
26195,Jastrzębsko,52.29515729322,16.06128426871
26211,Nowy Tomyśl,52.30412409838,16.13304662706
26237,Sątopy,52.30330322671,16.20345823258
26245,Porażyn,52.30229728497,16.28674150014
27201,Opalenica,52.30964531078,16.39967456997
27243,Wojnowice Wielkopolskie,52.32686852762,16.46655480116
27235,Buk,52.34354956913,16.5209083124
27250,Otusz,52.34669905447,16.59746832002
27268,Dopiewo,52.35384409933,16.67823172106
28753,Palędzie,52.37456507528,16.74918662003
28738,Poznań Junikowo,52.37787840959,16.82562387799
28720,Poznań Górczyn,52.38022615808,16.88137726116
27508,Czerwieńsk,52.01526862461,15.41197052282
27532,Nietkowice,52.05797636995,15.35025258519
27524,Będów,52.07343242924,15.31120874014
27540,Radnica,52.09007605759,15.26917697245
27557,Bytnica,52.13141346095,15.14807088539
27565,Budachów,52.15294943072,15.0816635621
27573,Pliszka,52.2046952675,15.01677758318
25908,Gądków Wielki,52.24621774924,14.9635560007
25890,Jerzmanice Lubuskie,52.30663356713,14.86743763104
280478,Rzepin Miasto,52.34587616577,14.82519149244
179213,Guben,51.95821565204,14.70663517445
28001,Gubin,51.97858599835,14.72203373373
28050,Wałowice,51.98456628293,14.79503809869
27698,Wężyska,52.01273886656,14.95161473215
27656,Krosno Odrzańskie,52.0318946764,15.09384155005
27615,Ciemnice,52.0394649525,15.23121356428
27623,Laski Odrzańskie,52.03602354257,15.30580214048
27631,Nietków,52.0256508676,15.34494543453
264913,Sieniawa Żarska,51.63655904775,15.06169933582
41608,Lipinki Łużyckie,51.64850889439,15.01173644572
41749,Tuplice Dębinka,51.66613591966,14.90992302667
41707,Tuplice,51.67178410463,14.83754429243
41715,Zasieki,51.73549379919,14.66923087643
179210,Forst (Lausitz),51.73888432313,14.63714790204
140581,Cottbus Hauptbahnhof,51.75094591445,14.3249298783
41277,Małomice,51.5496823915,15.4469895364
29645,Oborniki Wielkopolskie Miasto,52.64561481549,16.8202492644
16139,Rogoźno Wielkopolskie,52.75438614339,16.97174572074
16188,Chodzież,52.99419951966,16.90957992122
280152,Kołobrzeg Ogrody,54.17669392932,15.59641241491
30668,Kiekrz,52.47617335721,16.7895177609
30676,Rokietnica,52.5119264218,16.75401786317
28803,Szamotuły,52.60299231987,16.58629667021
28969,Wronki,52.7051665891,16.38586900418
29017,Drawski Młyn,52.8604127165,16.0937563409
29181,Dobiegniew,52.96838288147,15.74703357535
29199,Bierzwnik,53.02389819143,15.65851154089
29405,Choszczno,53.16524892098,15.40335939926
2386,Dolice,53.19892863938,15.20983645875
1180,Szczecin Załom,53.42940887949,14.74382367001
1404,Goleniów,53.55909731774,14.83954776098
1560,Wysoka Kamieńska,53.82558867231,14.83212091762
1644,Wolin,53.84869452264,14.60973776241
1610,Warnowo,53.92837728222,14.53557610424
1024,Międzyzdroje,53.92428980699,14.45527677392
1040,Świnoujście Przytór,53.89747199387,14.33653932546
1057,Świnoujście Warszów,53.90036624457,14.28530277179
1008,Świnoujście,53.9046508057,14.26659541863
28944,Pamiątkowo,52.5537408089,16.68493140689
13128,Kowalów,52.39753255864,14.7596656279
13086,Górzyca,52.49957659631,14.657152895
13417,Mieszkowice,52.78178232146,14.4859102865
13250,Godków,52.90115645677,14.4586228439
13334,Chojna,52.96358798355,14.44419154429
893,Krzywin Gryfiński,53.08822352074,14.45384858086
851,Gryfino,53.25433443787,14.49291904509
802,Szczecin Podjuchy,53.36068346115,14.58678084543
1032,Lubiewo,53.91566797957,14.4155670774
26310,Dąbrówka Wielkopolska,52.27746993863,15.80040249828
26294,Chociszewo Rogoziniec,52.30712295436,15.7699190461
26252,Lutol Suchy,52.34393116459,15.7544919883
26260,Panowice,52.3605001406,15.73503600272
26278,Bukowiec Miedzyrzecki,52.38552905912,15.70596889839
26708,Międzyrzecz,52.44527366544,15.59291895114
26583,Głębokie Międzyrzeckie,52.48470221148,15.53404329692
26567,Popowo Skwierzyńskie,52.53594732518,15.52218317215
26500,Skwierzyna,52.59049577374,15.49964522587
26542,Trzebiszewo,52.62560944015,15.40552256507
26534,Brzozowiec Gorzowski,52.65314029192,15.36781854661
26559,Deszczno,52.67173885707,15.30664662105
13946,Gorzów Wielkopolski Karnin,52.68894409415,15.28102240911
13938,Gorzów Wielkopolski Zieleniec,52.69972670878,15.26169709566
13953,Gorzów Wielkopolski Zamoście,52.72269033427,15.23901681331
13904,Gorzów Wielkopolski,52.72757815828,15.22857283768
30650,Poznań Wola,52.43348580802,16.85049296088
28936,Baborówko,52.58272337747,16.62702986342
28951,Pęckowo,52.66385828314,16.48951761615
28985,Mokrz,52.74112831677,16.27811697468
28993,Miały,52.80947504984,16.17569148317
29157,Drawiny,52.89699445931,15.9499433598
29165,Podlesiec,52.93657449802,15.87716347059
29173,Mierzęcin Strzelecki,52.94931867886,15.83303305817
29454,Rębusz,53.05300695312,15.59205813977
29447,Słonice,53.09089330875,15.5180903231
29439,Stary Klukom,53.13285823238,15.45345118412
29488,Ziemomyśl,53.1667732248,15.30391815981
2360,Morzyca,53.21925813355,15.15431501939
2329,Kolin,53.24561100418,15.12334733198
2345,Witkowo Pyrzyckie,53.28647732947,15.07501877106
109,Szczecin Port Centralny,53.41307922018,14.56610588998
264495,Szczecin Łasztownia,53.4186245339,14.55926180853
2311,Grzędzice,53.35811323138,14.97366408909
2279,Miedwiecko,53.36471987503,14.92454228294
280347,Wronki Zamość,52.71043909156,16.36074542463
264493,Szczecin Dunikowo,53.38578723108,14.73951637477
1198,Kliniska,53.46044976196,14.78388013035
1420,Białuń,53.61507268414,14.84094975144
1438,Łoźnica,53.69012162417,14.86615281088
1719,Rokita,53.76638397519,14.85497651762
1578,Parłówko,53.84564080353,14.74950635926
1586,Troszyn,53.84417894215,14.71740965077
1628,Ładzin,53.91089458144,14.5625739797
1073,Świnoujście Port,53.90122157607,14.26013897421
264492,Szczecin Trzebusz,53.4119971968,14.71382885903
264491,Goleniów Park Przemysłowy,53.5303473981,14.81080680817
25874,Drzeńsko,52.36984989296,14.77144092796
13110,Radów,52.43163465224,14.74252808436
13094,Laski Lubuskie,52.45980471327,14.71270550109
13078,Ługi Górzyckie,52.51573515997,14.65095718619
13052,Namyślin,52.67811071791,14.57051659805
13425,Boleszkowice,52.73668160007,14.51883616389
13433,Bielin,52.82239329683,14.46679975131
13375,Witnica Chojeńska,52.86620910399,14.45120222669
13359,Lisie Pole,53.02214104856,14.45061871164
869,Widuchowa,53.12377501988,14.44615455865
919,Pacholęta,53.17128563986,14.47148721337
844,Dolna Odra,53.21144673159,14.48106350719
836,Czepino,53.28492677217,14.51256094944
828,Daleszewo,53.30609938799,14.52898982551
280148,Radziszewo,53.31952435351,14.53315256953
264494,Szczecin Żydowce,53.35282859611,14.57462205523
29132,Stare Bielice,52.85347900123,15.9221403149
29215,Nowe Drezdenko,52.85381062199,15.83407429203
14324,Stare Kurowo,52.85444019752,15.67776599436
14308,Zwierzyn,52.83680698734,15.58457212689
14332,Sarbiewo,52.81915615554,15.54544708667
14340,Górki Noteckie,52.79337896631,15.48871847369
14357,Santok,52.74328445355,15.41564714626
260653,Gorzów Wielkopolski Wschodni,52.7318397516,15.24941829696
13961,Gorzów Wielkopolski Wieprzyce,52.7178313548,15.18110982681
14019,Łupowo,52.70079702676,15.12316786061
14027,Bogdaniec,52.6891323478,15.07864072922
14035,Nowiny Wielkie,52.67263999176,15.00270424939
14043,Witnica,52.66737323074,14.89613557767
14050,Kamień Mały,52.64165663653,14.78028438266
14068,Dąbroszyn,52.6187764275,14.71219237484
28654,Poznań Podolany,52.44744108355,16.88075408347
30643,Poznań Strzeszyn,52.46051520393,16.86573201215
262510,Złotniki Grzybowe,52.4846240814,16.84380785886
28647,Złotniki,52.49567078597,16.83610570285
262509,Złotkowo,52.51029398261,16.83059274789
28688,Golęczewo,52.53529483389,16.82794645637
28696,Chludowo,52.56006584796,16.82530114263
28670,Wargowo,52.58416893947,16.8227555052
262507,Bogdanowo,52.62885787548,16.81798754656
29603,Oborniki Wielkopolskie,52.65766909515,16.8297475029
29652,Rożnowo,52.67878730221,16.87102318529
29637,Parkowo,52.70847781468,16.91547633371
16147,Tarnowo Rogozińskie,52.80389195646,16.97523618095
16154,Sokołowo Budzyńskie,52.83825318225,16.96926875192
16162,Budzyń,52.89431083336,16.96602210038
16170,Ostrówki koło Chodzieży,52.93352292895,16.92655981234
16196,Milcz,53.04194847311,16.85783834081
14431,Dziembówko,53.07088930085,16.81515059873
14456,Piła Kalina,53.10119993738,16.78807308439
16444,Stara Łubianka,53.2322506021,16.70513755496
16436,Płytnica,53.29606843724,16.75083666351
16428,Ptusza,53.36543594295,16.78402766476
3228,Brokęcino,53.56262194503,16.81766735248
3194,Lotyń,53.59993545981,16.77982680513
3210,Turowo Pomorskie,53.64698505017,16.72320148217
3038,Dalęcino,53.74782443233,16.60866842447
3046,Przeradz,53.77053346941,16.53670844055
3012,Iwin,53.79511740076,16.51540527652
3970,Wielanowo,53.87381936913,16.32635262219
3954,Podborsko,53.93419498942,16.13879315176
3913,Kościernica,54.05389764191,16.01065133404
3921,Nosówko,54.0926993555,16.05249804963
3939,Dunowo,54.12189119951,16.09141780694
4408,Koszalin,54.19039460958,16.16960647928
4416,Mścice,54.21427020781,16.07319467119
4424,Będzino,54.21123446404,15.9927743942
4440,Słowienkowo,54.20714933429,15.94128875997
4457,Miłogoszcz,54.20533957721,15.90930613342
4465,Tymień,54.20537439154,15.8451523565
4135,Ustronie Morskie,54.20030545011,15.74765922422
280153,Kołobrzeg Amfiteatr,54.1811238469,15.59568821847
4036,Daszewo,54.07692101351,15.87504563803
4127,Wrzosowo,54.11483830389,15.8374181517
4150,Jazy,54.12920552654,15.79018778744
4143,Dygowo,54.14085719199,15.72668350965
4168,Stramnica,54.15486854454,15.65028238459
4861,Reblino,54.43066274557,16.91826427815
4853,Sycewice,54.41460871045,16.85001036272
4879,Wrześnica,54.40297353584,16.77838253358
5108,Sławno,54.3556494354,16.66879392961
5140,Karwice,54.34505750315,16.53561579015
4499,Wiekowo,54.30409600263,16.38789477959
4481,Skibno,54.24943321166,16.30459844798
280155,Koszalin Wschodni,54.21144865351,16.18286132276
280166,Koszalin Politechnika,54.20281134719,16.17299079359
4010,Czarnowęsy Pomorskie,53.93988776945,15.98157578244
3830,Rąbino,53.86938885838,15.95240745321
3996,Nielep,53.82955401468,15.87049162872
3632,Świdwin,53.78111392914,15.77274066944
280151,Świdwin Zamek,53.77227786563,15.76647519797
3475,Worowo,53.68864995204,15.63527255528
3509,Łobez,53.63665778088,15.62768048243
3624,Lesięcin,53.58619405597,15.57081771158
3467,Runowo Pomorskie,53.55566783884,15.52945065248
3558,Cieszyno Łobeskie,53.52071910034,15.46933073467
3517,Chociwel,53.47076432765,15.33607448192
3525,Lisowo,53.43126809724,15.29760198872
3541,Trąbki,53.39574135935,15.23873798109
2220,Gogolewo,53.37220968931,15.17647376905
1412,Rurka,53.49379840327,14.79597448303
1727,Stawno,53.86692573501,14.82783994619
1685,Górki Pomorskie,53.89826346481,14.82433582213
1677,Jarszewo,53.92980420363,14.79991294268
1651,Kamień Pomorski,53.96616399426,14.77421193812
3483,Klepnica,53.71758441586,15.65515462146
241701,Port Lotniczy Szczecin Goleniów,53.59359705876,14.89776528836
263905,Słupsk Północny,54.48340604131,17.01454458476
4986,Strzelinko,54.51318763048,16.96292310185
4697,Gałęzinowo,54.52302376186,16.93974954101
4978,Charnowo Słupskie,54.53195528163,16.92037521495
4952,Ustka,54.57873708694,16.86106249282
264159,Ustka Uroczysko,54.579668379,16.8452837222
208,Szczecin Gumieńce,53.39796622962,14.49716905694
179217,Tantow,53.27047736065,14.34939004471
150594,Neubrandenburg,53.56187560709,13.2615830172
150763,Sponholz,53.56387470945,13.36690525529
150761,Neetzka,53.53352756506,13.50078972024
150760,Oertzenhof,53.51808618952,13.57288296561
246940,Strasburg (Uckermark),53.51510737948,13.74505742328
150780,Blumenhagen,53.5283627351,13.87250338889
150748,Pasewalk,53.51532862055,13.9898369008
150750,Pasewalk Ost,53.50957033782,14.00924903705
150751,Zerrenthin,53.4995495459,14.09756240608
236483,Löcknitz,53.45613209781,14.21539946337
179218,Grambow,53.41727731155,14.347177496
315,Stobno Szczecińskie,53.40885074436,14.43628727853
150198,Bützow,53.83714870434,11.99809132275
150200,Güstrow,53.80079145644,12.17257816931
150202,Priemerburg,53.79593464014,12.22296835582
150205,Lalendorf,53.755004,12.38694134855
150206,Neu Wokern,53.76000128724,12.50104474603
150207,Teterow,53.76832919811,12.57784630423
150622,Malchin,53.74332182402,12.76148088228
150620,Reuterstadt Stavenhagen,53.70684914369,12.9140497963
150616,Mölln (Meckl),53.58582117679,13.08463038161
150439,Schwerin Hauptbahnhof,53.63471643392,11.40751844907
150193,Bad Kleinen,53.76692960947,11.46671042328
150194,Ventschow,53.78717313854,11.58004282209
150195,Blankenberg (Meckl),53.77226061511,11.71514516071
139404,Lübeck Hauptbahnhof,53.86756255896,10.66983101587
253351,Lübeck St. Jürgen,53.84236650484,10.70123414484
150180,Herrnburg,53.83772754178,10.75961984921
150181,Lüdersdorf (Meckl),53.8329429946,10.81501961839
150182,Schönberg (Meckl),53.85341797064,10.9276017791
150184,Grieben (Meckl),53.85126464382,11.06853681349
150185,Grevesmühlen,53.85737624645,11.18475491534
150191,Plüschow,53.83709881999,11.28603811905
150192,Bobitz,53.80448648128,11.36311113625
150453,Lübstorf,53.72906506993,11.41124089815
150692,Angermünde,53.015195182,13.99648438161
150716,Passow (Uckermark),53.14906876579,14.10185279762
150717,Schönow (Uckermark),53.18506172334,14.15436117064
150718,Casekow,53.21358187607,14.20844985648
150719,Petershagen (Uckermark),53.24012467884,14.25285325529
1636,Mokrzyca Wielka,53.87447082218,14.58041148287
5181,Boleszewo,54.37266487653,16.58416483929
5173,Nowy Jarosław,54.39248739682,16.52583254233
5165,Sińczyca,54.39958296455,16.48687562566
5157,Darłowo,54.41710381396,16.40431145767
4515,Mielno Koszalińskie,54.25418198276,16.05419052646
1875,Osina,53.60880680993,15.01241935616
1859,Nowogard,53.66611406458,15.12096218901
1974,Żabowo,53.71728296551,15.19017532247
1958,Płoty,53.8082986669,15.26130849969
2188,Baszewice,53.86282216121,15.19239284608
2170,Gryfice,53.91486909876,15.19175232243
26781,Bobowicko,52.44753594424,15.64689433877
26773,Policko,52.45917645239,15.69313403251
26765,Pszczew,52.49310251523,15.77285884738
26930,Wierzbno,52.56731762077,15.78238426616
4556,Miastko,53.99753249534,16.96597282834
4572,Kawcze,54.07202722811,16.88386684145
4598,Przytocko,54.12316027991,16.85750198077
4622,Ciecholub,54.1728728096,16.88788148213
4630,Biesowice,54.19348449878,16.88794471329
4648,Kępka,54.21626066627,16.8973052448
4945,Kępice,54.24138000541,16.89080453031
5132,Korzybie,54.29667694032,16.87375991091
4747,Wrząca Pomorska,54.34342808244,16.91715408466
4739,Słonowice,54.38349093546,16.92656684921
4721,Widzino,54.42871773098,16.96251988095
4713,Kobylnica Słupska,54.44242860265,16.98623854694
3574,Węgorzyno,53.5434529612,15.56063978617
3582,Wiewiecko,53.52623126379,15.6507405891
3277,Jankowo Pomorskie,53.5166603593,15.77440498429
3335,Drawsko Pomorskie,53.52326542838,15.82479600872
3327,Suliszewo Drawskie,53.5171698653,15.89307789623
3251,Rzęśnica,53.52450325105,15.95202160616
3301,Złocieniec,53.52796836384,16.01818888846
3343,Bobrowo Pomorskie,53.52826912691,16.07851881144
3350,Żelisławie Pomorskie,53.52412418401,16.15003855183
3368,Czaplinek,53.53765845243,16.23961808002
3376,Czarne Małe,53.5574379698,16.31910175181
3020,Łubowo,53.58389986221,16.38972966503
3095,Silnowo,53.6348794314,16.49167917023
3111,Jelenino,53.6593717778,16.62551953113
3053,Gwda Mała,53.7319923397,16.82800727407
3079,Drzonowo,53.8068958437,16.86624068576
3087,Biały Bór,53.88677179407,16.85543719142
4564,Słosinko,53.94179814677,16.97747672
1883,Mosty,53.57438318093,14.94052722936
1867,Wyszomierz,53.62601863881,15.06367927789
2162,Górzyca Reska,53.96931271802,15.23300754656
2154,Gąbin,54.01065169468,15.2867842755
2147,Trzebiatów,54.06059807419,15.27763338805
4226,Bieczyno Pomorskie,54.09586189373,15.3534530391
4218,Karcino,54.10878823461,15.39723936839
4176,Głowaczewo,54.13067078185,15.4385107215
4192,Stary Borek,54.13800880787,15.48147939888
280154,Kołobrzeg Radzikowo,54.16209790323,15.54317593038
251584,Kołobrzeg Stadion,54.17514277076,15.55921523677
263441,Olsztyn Dajtki,53.76577032635,20.43829237302
22087,Lubajny,53.70042725499,20.02500832025
21931,Jamielnik,53.52868023833,19.50079801807
21071,Biskupiec Pomorski,53.48938671312,19.38935189345
21097,Lipinki,53.46438168847,19.3188861896
21063,Ostrowite koło Jabłonowa,53.43368324719,19.26812972453
9423,Bartąg,53.71318734586,20.44722923911
9431,Gągławki,53.68004649974,20.43713954192
9415,Stawiguda,53.65073050271,20.40768248437
9449,Gryźliny,53.61303796201,20.34638199631
9456,Olsztynek,53.58481033064,20.29516784826
9464,Waplewo,53.5112577549,20.35579007429
9472,Bujaki,53.4795625557,20.37610352647
9480,Dobrzyń,53.43437937643,20.38647726054
279322,Wietrzychowo,53.4192337567,20.39987454619
22202,Nidzica,53.35711425351,20.41398876596
22236,Kozłowo,53.31083432105,20.31274849188
22244,Zakrzów Sarnowo,53.28263553582,20.28329080412
22442,Działdowo,53.23894199774,20.1672217791
22459,Burkat,53.27517359084,20.1353243569
22467,Turza Wielka,53.30737998054,20.08390632526
22475,Gralewo,53.32016175727,20.03490659746
22483,Żabiny,53.34214940502,19.98314374022
22491,Tuczki,53.35213728614,19.95460390208
22517,Rybno Pomorskie,53.38090761567,19.91399262892
21923,Jeglia,53.39105150998,19.87611679498
21899,Hartowiec,53.39613298757,19.84517478658
21881,Montowo,53.41618307104,19.78003703047
21873,Zajączkowo Lubawskie,53.4442854364,19.71297885189
21865,Rakowice,53.47816034692,19.64148965795
21857,Smolniki,53.54025761411,19.60436469159
23051,Gdakowo,53.81649149556,19.17013400255
8052,Dąbrówka Malborska,53.97754221778,19.08708202814
8060,Gronajny,53.99155841458,19.05359208047
279439,Nikielkowo,53.80288260065,20.56528917549
9357,Łęgajny,53.82117758116,20.61744656495
9365,Barczewo,53.84476367874,20.70010969799
9738,Wipsowo,53.89468977974,20.79689257608
9704,Czerwonka,53.91437043401,20.89369917574
9720,Górowo,53.96002809855,20.98461558664
279440,Kolno,53.99374730088,20.99174862698
10033,Sątopy Samulewo,54.073276749,21.0242308214
10025,Łankiejmy,54.14225747014,21.06948827173
10009,Korsze,54.17218815958,21.13651401118
10264,Tołkiny,54.11757953105,21.23539103266
10272,Linkowo,54.09054152149,21.26541414758
10280,Nowy Młyn,54.066464533,21.32757895692
10405,Kętrzyn,54.07262720034,21.38515338756
10413,Martiany,54.02661795548,21.51664700383
12641,Sterławki Wielkie,54.01513127738,21.57506120865
12666,Sterławki Małe,54.01171397853,21.64638429344
12658,Niegocin,54.01961435742,21.73798453613
12609,Giżycko,54.03136915601,21.77804811001
12633,Siedliska,54.00034406121,21.91429061453
11858,Wydminy,53.97676045014,22.03271586733
11833,Stare Juchy,53.92496315876,22.16922226733
11841,Woszczele,53.8599125494,22.24857765272
9258,Bukwałd,53.86835137181,20.37968157649
9266,Cerkiewnik,53.90917956168,20.39662777841
9274,Swobodna,53.94002242038,20.39450882792
9282,Dobre Miasto,53.9832316421,20.38507282197
9290,Bzowiec,54.0199609962,20.31596301913
9316,Rogiedle,54.03796541881,20.2827787292
9340,Lubomino,54.06497632448,20.23347436845
11346,Orneta,54.11535789582,20.1504063499
265648,Nowy Dwór koło Ornety,54.14403102175,20.14289616466
11338,Henrykowo,54.17448664545,20.14453767657
11312,Pieniężno,54.24012736522,20.1247000587
11320,Żugienie,54.25933674965,20.08806108892
11296,Wysoka Braniewska,54.27922309243,20.02121507585
11288,Jarzębiec,54.31291210058,19.99321281374
11494,Grodzie,54.34525088992,19.96163247943
11254,Braniewo,54.3812759417,19.84198449969
10736,Olszyny,53.55388104421,21.10722903455
10744,Jeruty,53.5526986374,21.15422245207
10728,Świętajno,53.56275335686,21.22888534737
10751,Kolonia,53.56727025186,21.27229134348
10769,Spychowo,53.59124439098,21.35501355027
10835,Ruciane Nida Zachód,53.64258474779,21.52349285583
10827,Ruciane Nida,53.64918966836,21.56292929043
12377,Szeroki Bór,53.6397314807,21.69952218551
12369,Pisz,53.63182419077,21.79292007566
263407,Pisz Wschodni,53.62726992174,21.83101641133
12351,Stare Guty,53.6140180425,21.92472308797
12344,Kaliszki,53.62044334809,22.00605501733
12336,Biała Piska,53.61494359299,22.06528369869
12328,Drygały,53.67923597344,22.10398891467
12294,Pogorzel Wielka,53.70722001377,22.14986881874
12260,Bajtkowo,53.73714550244,22.23999274094
12286,Nowa Wieś Ełcka,53.77196898553,22.32360692533
12278,Ełk Szyba Zachód,53.80233453089,22.37029543624
259152,Szymany Lotnisko,53.48905663179,20.94752749207
67801,Sławięcice,50.35143399302,18.31408463173
67843,Rudziniec Gliwicki,50.36662346685,18.40454193355
70169,Taciszów,50.35796470108,18.50806771879
70151,Rzeczyce Śląskie,50.35660074654,18.56769757425
23101,Kwidzyn,53.73096712328,18.93361571347
23192,Brachlewo,53.80243977919,18.96120131131
23218,Ryjewo,53.84319010872,18.95681329538
23226,Sztumska Wieś,53.89508223835,19.00146283258
8086,Sztum,53.92566559823,19.02113221403
8094,Gościszewo,53.97473694603,19.01796854921
20503,Grudziądz,53.48202833459,18.760921647
280329,Grudziądz Tuszewo,53.48647687984,18.81257696996
20537,Grudziądz Owczarki,53.50280551803,18.84686602208
20545,Rogóźno Pomorskie,53.54392060108,18.91133358215
20552,Gardeja,53.59187465865,18.93280703879
23168,Dziwno,53.61870496794,18.9017196495
23143,Sadlinki,53.66726316996,18.88045234718
257530,Gdańsk Port Lotniczy,54.38286874433,18.4660080172
257540,Gdańsk Firoga,54.37834223228,18.48605811059
257531,Gdańsk Matarnia,54.37339867388,18.50649533464
257542,Gdańsk Kiełpinek,54.35534753227,18.52856516071
257532,Gdańsk Jasień,54.35366498979,18.55015172024
257533,Gdańsk Brętowo,54.36528034553,18.57362381602
257534,Gdańsk Niedźwiednik,54.37803566944,18.57202487161
257535,Gdańsk Strzyża,54.39177971798,18.57887122223
15610,Powałki,53.74337797716,17.5997675852
15644,Męcikał,53.83233576885,17.67117091705
15651,Żabno koło Chojnic,53.85447295276,17.70720421751
15669,Brusy,53.88229192363,17.72793107559
15677,Lubnia,53.93553688285,17.74229262611
17640,Raduń,53.96932714021,17.77844102848
17632,Dziemiany Kaszubskie,54.01134622646,17.77521604984
17624,Kalisz Kaszubski,54.04509654868,17.78607937416
17616,Lipuska Huta,54.07022899545,17.76734018083
17608,Lipusz,54.09680547844,17.78035044907
17582,Łubiana,54.11478342664,17.8665775581
17590,Garczyn,54.1237423648,17.91107850342
17509,Kościerzyna,54.1205684094,17.99476023801
260710,Gdynia Stadion,54.49586743918,18.53313176071
260711,Gdynia Karwiny,54.46938650857,18.50873873069
6122,Gdańsk Osowa,54.42217942095,18.45261218384
257521,Gdańsk Rębiechowo,54.38745024741,18.4464659914
7443,Gdańsk Kokoszki,54.3623609436,18.4921896404
178108,Leźno,54.34763352884,18.45924674928
7427,Stara Piła,54.32646007299,18.41389595926
265664,Otomino,54.33065810018,18.37654351652
18051,Żukowo Zachodnie,54.33339190537,18.34904014528
117168,Dzierżążno,54.31520235936,18.26392940475
18002,Kartuzy,54.33401066344,18.2060686118
17871,Rębiechowo,54.38869046123,18.42161793254
17863,Pępowo Kartuskie,54.3668619273,18.40163296934
17855,Żukowo Wschodnie,54.34849600561,18.37314270622
257551,Żukowo,54.34438504767,18.36209927116
17848,Borkowo,54.33337014879,18.33346813902
17822,Babi Dół,54.30158912189,18.28858695698
17798,Kiełpino Kartuskie,54.28723277738,18.23151458891
17780,Somonino,54.26991503847,18.19295567982
17772,Sławki,54.25725182006,18.17622188136
17764,Wieżyca,54.23452651599,18.12777765757
17756,Krzeszna,54.23561452305,18.08878756736
17749,Gołubie Kaszubskie,54.21246011585,18.03672946025
17731,Skorzewo,54.16523726929,17.9809645666
